,osm_id,timestamp,name,type,geometry,lat,long
0,60665830.0,,Basil Viet Kitchen,restaurant,POINT (-122.313141 47.6554532),47.6554532,-122.313141
1,293558450.0,,Jack in the Box,fast_food,POINT (-122.1659276 47.7536238),47.7536238,-122.1659276
2,293719641.0,,Red Robin,restaurant,POINT (-122.1556091 47.7576892),47.7576892,-122.1556091
3,293722655.0,,Big Fish Grill,restaurant,POINT (-122.1564079 47.7546619),47.7546619,-122.1564079
4,293833085.0,,Taco Time,fast_food,POINT (-122.1536057 47.75484),47.75484,-122.1536057
5,293835831.0,,Herbfarm,restaurant,POINT (-122.147451 47.7331995),47.7331995,-122.147451
6,293835832.0,,Barking Frog,restaurant,POINT (-122.1474339 47.733569),47.733569,-122.1474339
7,293835921.0,,Purple Cafe and Wine Bar - Woodinville,restaurant,POINT (-122.1420281 47.7316091),47.7316091,-122.1420281
8,293835973.0,,Heritage Restaurant|Bar,restaurant,POINT (-122.1409412 47.7324083),47.7324083,-122.1409412
9,293836218.0,,McDonald's,fast_food,POINT (-122.1534168 47.752803),47.752803,-122.1534168
10,293836233.0,,KFC,fast_food,POINT (-122.1533016 47.7518142),47.7518142,-122.1533016
11,295233657.0,,Tokyo Japanese Steakhouse,restaurant,POINT (-122.1611763 47.7533485),47.7533485,-122.1611763
12,295233659.0,,Racha Thai,restaurant,POINT (-122.1602643 47.753334),47.753334,-122.1602643
13,306445119.0,,Mi Tierra,restaurant,POINT (-122.1605967 47.7547288),47.7547288,-122.1605967
14,332083886.0,,Taqueria Guadalajara,fast_food,POINT (-122.1437146 47.63212),47.63212,-122.1437146
15,334955862.0,,Subway,fast_food,POINT (-122.1403152 47.6313336),47.6313336,-122.1403152
16,335046669.0,,International Food Corner,restaurant,POINT (-122.1320427 47.6230749),47.6230749,-122.1320427
17,335047073.0,,Off the Rails Sport Bar,bar,POINT (-122.1315621 47.6230633),47.6230633,-122.1315621
18,335048098.0,,Subway,fast_food,POINT (-122.1320599 47.6226617),47.6226617,-122.1320599
19,335052583.0,,Westernco Donut,fast_food,POINT (-122.132058 47.6227281),47.6227281,-122.132058
20,335068285.0,,Domino's,fast_food,POINT (-122.1279504 47.617386),47.617386,-122.1279504
21,335068292.0,,Ten Seconds Yunnan Rice Noodle,restaurant,POINT (-122.1279624 47.6172615),47.6172615,-122.1279624
22,336194978.0,,Starbucks,cafe,POINT (-122.1411674 47.6281301),47.6281301,-122.1411674
23,339935528.0,,Mediterranean Grill,restaurant,POINT (-122.1350319 47.6287068),47.6287068,-122.1350319
24,340336013.0,,Spice Route,restaurant,POINT (-122.1449125 47.6307146),47.6307146,-122.1449125
25,340336014.0,,Chuck E. Cheese's,restaurant,POINT (-122.1449303 47.6304854),47.6304854,-122.1449303
26,340337966.0,,Cafe Ori,restaurant,POINT (-122.1489543 47.6271572),47.6271572,-122.1489543
27,340338866.0,,Sizzling Pot King,restaurant,POINT (-122.1510485 47.6271167),47.6271167,-122.1510485
28,340338867.0,,Thai Kitchen,restaurant,POINT (-122.1520417 47.627246),47.627246,-122.1520417
29,340338963.0,,Blue Ginger,restaurant,POINT (-122.1524819 47.6276431),47.6276431,-122.1524819
30,340340361.0,,MonGa Cafe,cafe,POINT (-122.1448865 47.6268807),47.6268807,-122.1448865
31,340340742.0,,Photai,restaurant,POINT (-122.144297 47.6274173),47.6274173,-122.144297
32,340340743.0,,Little Garden,restaurant,POINT (-122.1437896 47.6276051),47.6276051,-122.1437896
33,343484718.0,,Starbucks,cafe,POINT (-122.1441113 47.6297257),47.6297257,-122.1441113
34,346521344.0,,Mandarin Buffet & Grill,restaurant,POINT (-122.141844 47.6325808),47.6325808,-122.141844
35,346521484.0,,Starbucks,cafe,POINT (-122.1405142 47.6324527),47.6324527,-122.1405142
36,346526865.0,,Nasai Teriyaki,restaurant,POINT (-122.1380782 47.6320711),47.6320711,-122.1380782
37,346526866.0,,Qdoba,fast_food,POINT (-122.1383196 47.6318975),47.6318975,-122.1383196
38,347255980.0,,Pho Hoa Noodle Soup,restaurant,POINT (-122.1382979 47.6310884),47.6310884,-122.1382979
39,347255984.0,,Regent Bakery & Cafe,restaurant,POINT (-122.1382925 47.6308353),47.6308353,-122.1382925
40,347255986.0,,The Bento Box,restaurant,POINT (-122.1389834 47.6304398),47.6304398,-122.1389834
41,347256907.0,,Sichuanese Cuisine,restaurant,POINT (-122.1403152 47.6312161),47.6312161,-122.1403152
42,347256908.0,,Yumiko's Teriyaki,restaurant,POINT (-122.1403178 47.6312685),47.6312685,-122.1403178
43,347259508.0,,Kabob Palace,restaurant,POINT (-122.1369704 47.6321379),47.6321379,-122.1369704
44,347259509.0,,Seoul Hot Pot,restaurant,POINT (-122.1370267 47.6323693),47.6323693,-122.1370267
45,347259510.0,,Sapporo Teriyaki,restaurant,POINT (-122.1370321 47.6325735),47.6325735,-122.1370321
46,347259516.0,,Pizza Hut,restaurant,POINT (-122.1372226 47.6329586),47.6329586,-122.1372226
47,352555200.0,,Jersey Mike's Subs,fast_food,POINT (-122.1367274 47.6319291),47.6319291,-122.1367274
48,352555208.0,,Teapot Vegetarian House,restaurant,POINT (-122.1366327 47.6319326),47.6319326,-122.1366327
49,352567920.0,,Malay Satay Hut,restaurant,POINT (-122.1364252 47.631936),47.631936,-122.1364252
50,356551808.0,,Starbucks,cafe,POINT (-122.3210607 47.6188627),47.6188627,-122.3210607
51,358264875.0,,Subway,fast_food,POINT (-122.2004163 47.609921),47.609921,-122.2004163
52,395170771.0,,Toshi's Teriyaki,restaurant,POINT (-122.1980371 47.6104903),47.6104903,-122.1980371
53,418553403.0,,Victor's Coffee House,cafe,POINT (-122.1219693 47.6745059),47.6745059,-122.1219693
54,418553404.0,,The Matador,restaurant,POINT (-122.1230261 47.6731886),47.6731886,-122.1230261
55,418778904.0,,McDonald's,fast_food,POINT (-122.1144581 47.6712582),47.6712582,-122.1144581
56,418778905.0,,Dairy Queen,fast_food,POINT (-122.1137086 47.6712239),47.6712239,-122.1137086
57,418996958.0,,Starbucks,cafe,POINT (-122.1106331 47.672689),47.672689,-122.1106331
58,418996961.0,,Red Robin,restaurant,POINT (-122.114341 47.6701806),47.6701806,-122.114341
59,418996963.0,,BJ's Brewhouse,restaurant,POINT (-122.1198608 47.6687603),47.6687603,-122.1198608
60,420020319.0,,Starbucks,cafe,POINT (-122.0935991 47.7024308),47.7024308,-122.0935991
61,420020320.0,,Subway,fast_food,POINT (-122.0935531 47.7024919),47.7024919,-122.0935531
62,420020323.0,,Java Junction,cafe,POINT (-122.0925863 47.7022345),47.7022345,-122.0925863
63,420020325.0,,Apple Teriyaki,fast_food,POINT (-122.0935289 47.702602),47.702602,-122.0935289
64,420020327.0,,Garlic Jim's,fast_food,POINT (-122.0934746 47.7027058),47.7027058,-122.0934746
65,426156711.0,,The Maltby Cafe,restaurant,POINT (-122.1143727 47.8052372),47.8052372,-122.1143727
66,427246530.0,,Great Fortune,restaurant,POINT (-122.1531238 47.6254515),47.6254515,-122.1531238
67,427307160.0,,Beth's Cafe,restaurant,POINT (-122.344708 47.6821453),47.6821453,-122.344708
68,440454194.0,,Luna Park Cafe,restaurant,POINT (-122.3710361 47.5706768),47.5706768,-122.3710361
69,440839204.0,,Lula Coffee,cafe,POINT (-122.3869867 47.5632158),47.5632158,-122.3869867
70,440839206.0,,Pagliacci Pizza,fast_food,POINT (-122.3869567 47.5633605),47.5633605,-122.3869567
71,440839207.0,,Lee's Asian Restaurant,restaurant,POINT (-122.3865616 47.5624905),47.5624905,-122.3865616
72,440839210.0,,Be's Restaurant,restaurant,POINT (-122.3869793 47.5626236),47.5626236,-122.3869793
73,440842896.0,,Maharaja Cuisine of India,restaurant,POINT (-122.3865536 47.5616219),47.5616219,-122.3865536
74,440842898.0,,Cupcake Royale,cafe,POINT (-122.3865559 47.5612196),47.5612196,-122.3865559
75,440842901.0,,Easy Street Cafe,restaurant,POINT (-122.3869904 47.5613144),47.5613144,-122.3869904
76,440842903.0,,Baja Taco,fast_food,POINT (-122.3845636 47.5601571),47.5601571,-122.3845636
77,440843430.0,,Uptown Espresso,cafe,POINT (-122.3875646 47.5591717),47.5591717,-122.3875646
78,441028242.0,,Flying Apron,cafe,POINT (-122.3869938 47.5608253),47.5608253,-122.3869938
79,441028243.0,,Taqueria Guaymas,restaurant,POINT (-122.3870188 47.560547),47.560547,-122.3870188
80,441028245.0,,Subway,fast_food,POINT (-122.3852059 47.5607381),47.5607381,-122.3852059
81,441052700.0,,Matador,restaurant,POINT (-122.3865474 47.5615325),47.5615325,-122.3865474
82,441510194.0,,Pegasus Pizza,restaurant,POINT (-122.4116777 47.5786654),47.5786654,-122.4116777
83,441510758.0,,Starbucks,cafe,POINT (-122.4111602 47.5788477),47.5788477,-122.4111602
84,441510760.0,,Alki Cafe,restaurant,POINT (-122.4104377 47.5790228),47.5790228,-122.4104377
85,441994623.0,,New Luck Toy,restaurant,POINT (-122.3873209 47.550119),47.550119,-122.3873209
86,444455516.0,,Cowen Park Grocery,cafe,POINT (-122.3144575 47.671152),47.671152,-122.3144575
87,457772972.0,,Starbucks,cafe,POINT (-122.3998089 47.6397122),47.6397122,-122.3998089
88,457772974.0,,Subway,fast_food,POINT (-122.4003794 47.6397333),47.6397333,-122.4003794
89,457772975.0,,Pink Salt,restaurant,POINT (-122.4006017 47.6394257),47.6394257,-122.4006017
90,457773015.0,,Nikos Gyros,restaurant,POINT (-122.3985109 47.6392646),47.6392646,-122.3985109
91,457773030.0,,Uptown Espresso,cafe,POINT (-122.3994577 47.639422),47.639422,-122.3994577
92,457773035.0,,Kinnaree,restaurant,POINT (-122.4001996 47.639426),47.639426,-122.4001996
93,457773042.0,,El Ranchon,restaurant,POINT (-122.4019686 47.6396937),47.6396937,-122.4019686
94,457773043.0,,Gim Wah,restaurant,POINT (-122.4020842 47.6396968),47.6396968,-122.4020842
95,458623718.0,,Queen Margherita,restaurant,POINT (-122.3976471 47.639223),47.639223,-122.3976471
96,458623720.0,,Soprano's Pizza,restaurant,POINT (-122.3987834 47.639709),47.639709,-122.3987834
97,458623726.0,,Serendipity,cafe,POINT (-122.399429 47.6397036),47.6397036,-122.399429
98,459163388.0,,Ichiro,restaurant,POINT (-122.3981604 47.640667),47.640667,-122.3981604
99,459169510.0,,Nutty Squirrel Gelato - Magnolia,cafe,POINT (-122.3997907 47.6403282),47.6403282,-122.3997907
100,459169511.0,,Mondello Ristorante,restaurant,POINT (-122.399799 47.6402279),47.6402279,-122.399799
101,461089857.0,,Starbucks,cafe,POINT (-122.1959518 47.6152961),47.6152961,-122.1959518
102,461089859.0,,Bowl Gogi,fast_food,POINT (-122.1956074 47.6152867),47.6152867,-122.1956074
103,471973082.0,,Starbucks,cafe,POINT (-122.1933228 47.6175489),47.6175489,-122.1933228
104,471973083.0,,Subway,fast_food,POINT (-122.193073 47.6175489),47.6175489,-122.193073
105,471973084.0,,CoCo - Fresh Tea and Juice,cafe,POINT (-122.192833 47.6175431),47.6175431,-122.192833
106,476077367.0,,Snappy Dragon,restaurant,POINT (-122.3177709 47.6936176),47.6936176,-122.3177709
107,476081433.0,,Flying Squirrel Pizza,restaurant,POINT (-122.3228006 47.6892671),47.6892671,-122.3228006
108,476082095.0,,Cafe Javasti,cafe,POINT (-122.3228177 47.6900009),47.6900009,-122.3228177
109,476086057.0,,Himitsu Teriyaki,restaurant,POINT (-122.3124639 47.6869038),47.6869038,-122.3124639
110,476091771.0,,Mojito,restaurant,POINT (-122.3160344 47.6843961),47.6843961,-122.3160344
111,476122218.0,,Anita's Mexican Food,restaurant,POINT (-122.3453627 47.7189846),47.7189846,-122.3453627
112,477872229.0,,Smile Thai Cuisine,restaurant,POINT (-122.3256061 47.6755809),47.6755809,-122.3256061
113,479501012.0,,Red Mill Burgers,restaurant,POINT (-122.3546696 47.6778315),47.6778315,-122.3546696
114,479527694.0,,Poké Café,fast_food,POINT (-122.3242537 47.7088794),47.7088794,-122.3242537
115,488381820.0,,Thai 65 Cafe,restaurant,POINT (-122.1125128 47.6729797),47.6729797,-122.1125128
116,536802414.0,,Twisted Cafe,restaurant,POINT (-122.1706875 47.7531387),47.7531387,-122.1706875
117,540533325.0,,Starbucks,cafe,POINT (-122.22588 47.5417388),47.5417388,-122.22588
118,541389148.0,,Cafe Bollywood,restaurant,POINT (-122.201252 47.6113573),47.6113573,-122.201252
119,541389153.0,,Garlic Crush,restaurant,POINT (-122.201252 47.6114093),47.6114093,-122.201252
120,551077654.0,,King Buffet,restaurant,POINT (-122.2171977 47.4741246),47.4741246,-122.2171977
121,563386659.0,,Andiamo,restaurant,POINT (-122.1934498 47.6191564),47.6191564,-122.1934498
122,569008582.0,,Mighty-O Donuts,cafe,POINT (-122.33323 47.6687913),47.6687913,-122.33323
123,614320960.0,,Irene Thai,restaurant,POINT (-122.1625807 47.7554222),47.7554222,-122.1625807
124,663908536.0,,Kisaku Sushi,restaurant,POINT (-122.3331798 47.668582),47.668582,-122.3331798
125,663908551.0,,Himalayan Sherpa House,restaurant,POINT (-122.3318278 47.6688385),47.6688385,-122.3318278
126,663911505.0,,Zeitgeist Coffee and Art,cafe,POINT (-122.331856 47.599091),47.599091,-122.331856
127,663911527.0,,Starbucks,cafe,POINT (-122.332663 47.5990989),47.5990989,-122.332663
128,663911532.0,,Grand Central Bakery - Pioneer Square,cafe,POINT (-122.3336387 47.6003578),47.6003578,-122.3336387
129,667196524.0,,El Sombrero,restaurant,POINT (-122.2247588 47.5409723),47.5409723,-122.2247588
130,675546473.0,,Vatsana Thai Restaurant,restaurant,POINT (-122.3655616 47.5226736),47.5226736,-122.3655616
131,678283820.0,,Mosaic Coffeehouse,cafe,POINT (-122.3274988 47.660387),47.660387,-122.3274988
132,697212593.0,,Starbucks,cafe,POINT (-122.2048205 47.6183782),47.6183782,-122.2048205
133,699849823.0,,Cafe Juanita,restaurant,POINT (-122.2124295 47.7076146),47.7076146,-122.2124295
134,710893981.0,,Subway,fast_food,POINT (-122.3434159 47.7828773),47.7828773,-122.3434159
135,710896934.0,,Teddy's Bigger Burgers,fast_food,POINT (-122.1533751 47.756382),47.756382,-122.1533751
136,715609140.0,,,cafe,POINT (-122.0802669 47.7546031),47.7546031,-122.0802669
137,725890579.0,,Starbucks,cafe,POINT (-122.2065548 47.6758212),47.6758212,-122.2065548
138,728175891.0,,Mexican Bar,bar,POINT (-122.3220637 47.5390962),47.5390962,-122.3220637
139,735224826.0,,Herkimer Coffee - Phinney Ridge,cafe,POINT (-122.3551067 47.6824348),47.6824348,-122.3551067
140,735982052.0,,Sunny Hill,restaurant,POINT (-122.3979721 47.6903909),47.6903909,-122.3979721
141,735982190.0,,Fiore Sunset Hill,cafe,POINT (-122.3980417 47.6904588),47.6904588,-122.3980417
142,735982605.0,,McDonald's,fast_food,POINT (-122.3745952 47.695046),47.695046,-122.3745952
143,735982606.0,,Turtle Coffee,cafe,POINT (-122.3748929 47.694443),47.694443,-122.3748929
144,735982614.0,,Dick's Drive-In - Holman Road,restaurant,POINT (-122.3716823 47.6964379),47.6964379,-122.3716823
145,735982615.0,,Tacos and Beer,restaurant,POINT (-122.3722309 47.6968423),47.6968423,-122.3722309
146,735982938.0,,The Fat Hen,cafe,POINT (-122.3745013 47.6796262),47.6796262,-122.3745013
147,735983213.0,,Cupcake Royale,cafe,POINT (-122.3843499 47.6688461),47.6688461,-122.3843499
148,736920767.0,,Brimmer & Heeltap,restaurant,POINT (-122.3631168 47.6685259),47.6685259,-122.3631168
149,739619981.0,,Baker's,bar,POINT (-122.3982158 47.6755763),47.6755763,-122.3982158
150,761805568.0,,Darrell's Tavern,bar,POINT (-122.3469035 47.7606641),47.7606641,-122.3469035
151,762446099.0,,Italianissimo,restaurant,POINT (-122.130965 47.7628828),47.7628828,-122.130965
152,771801466.0,,Super China Buffet,restaurant,POINT (-122.3493107 47.7409021),47.7409021,-122.3493107
153,773404723.0,,Urban Pizza VIP,restaurant,POINT (-122.361061 47.6903568),47.6903568,-122.361061
154,773404725.0,,Georgia's Greek Restaurant & Deli,restaurant,POINT (-122.3617348 47.6905083),47.6905083,-122.3617348
155,773404726.0,,Taqueria Tequila,restaurant,POINT (-122.3608285 47.6903392),47.6903392,-122.3608285
156,775389525.0,,Las Margaritas,restaurant,POINT (-122.3445722 47.7339391),47.7339391,-122.3445722
157,799990460.0,,Pagliacci Pizza,restaurant,POINT (-122.319895 47.6414613),47.6414613,-122.319895
158,809708072.0,,,cafe,POINT (-122.1447876 47.6510848),47.6510848,-122.1447876
159,809709463.0,,PRO Club Bistro,restaurant,POINT (-122.145133 47.651233),47.651233,-122.145133
160,810669711.0,,Jack in the Box,fast_food,POINT (-122.2930636 47.7245082),47.7245082,-122.2930636
161,810792546.0,,Manna Teriyaki,restaurant,POINT (-122.3002582 47.7099298),47.7099298,-122.3002582
162,810792639.0,,Tubs Gourmet Subs,fast_food,POINT (-122.3002903 47.7098612),47.7098612,-122.3002903
163,810792928.0,,Luciano's Pizza,restaurant,POINT (-122.3001777 47.7100327),47.7100327,-122.3001777
164,825210854.0,,La Hacienda Santa Fe Family Mexican Restaurant,restaurant,POINT (-122.2059228 47.4795673),47.4795673,-122.2059228
165,832288493.0,,Mediterranean Kitchen,restaurant,POINT (-122.1884922 47.711563),47.711563,-122.1884922
166,842212109.0,,Maggie Bluffs,restaurant,POINT (-122.3911337 47.6302742),47.6302742,-122.3911337
167,857059334.0,,Terry's Kitchen,restaurant,POINT (-122.1797708 47.5522789),47.5522789,-122.1797708
168,857419297.0,,Nori Presto,restaurant,POINT (-122.3121581 47.7190937),47.7190937,-122.3121581
169,882590706.0,,Resonate Brewery + Pizzeria,restaurant,POINT (-122.1774829 47.5521067),47.5521067,-122.1774829
170,882694163.0,,Teriyaki Town II,restaurant,POINT (-122.1783627 47.5512233),47.5512233,-122.1783627
171,908632940.0,,Silver Spoon,restaurant,POINT (-122.0239488 47.699595),47.699595,-122.0239488
172,908632947.0,,Starbucks,cafe,POINT (-122.0245711 47.7002268),47.7002268,-122.0245711
173,908633008.0,,Ixtapa,restaurant,POINT (-122.041161 47.6945633),47.6945633,-122.041161
174,908633012.0,,Subway,fast_food,POINT (-122.0418664 47.6944644),47.6944644,-122.0418664
175,921033237.0,,12th Avenue Café,cafe,POINT (-122.0503049 47.5433528),47.5433528,-122.0503049
176,921033240.0,,Starbucks,cafe,POINT (-122.0476309 47.5417285),47.5417285,-122.0476309
177,928699079.0,,Palisade,restaurant,POINT (-122.3915164 47.6303796),47.6303796,-122.3915164
178,942240032.0,,Pizza Hut,restaurant,POINT (-122.1963589 47.4436655),47.4436655,-122.1963589
179,942240043.0,,5 Hermanos,restaurant,POINT (-122.1978554 47.4442433),47.4442433,-122.1978554
180,944701944.0,,Taco Del Mar,fast_food,POINT (-122.320315 47.709282),47.709282,-122.320315
181,973963661.0,,Chef King,restaurant,POINT (-122.357756 47.6904007),47.6904007,-122.357756
182,980039736.0,,The Dish,cafe,POINT (-122.3657621 47.6603209),47.6603209,-122.3657621
183,980039756.0,,ST Hooligans,bar,POINT (-122.3657442 47.6602513),47.6602513,-122.3657442
184,994058853.0,,Cut Shop,restaurant,POINT (-122.1690483 47.7531228),47.7531228,-122.1690483
185,1006125170.0,,SeaStar,restaurant,POINT (-122.1965119 47.6122513),47.6122513,-122.1965119
186,1020824408.0,,Chaat N Roll,restaurant,POINT (-122.125221 47.6764909),47.6764909,-122.125221
187,1021843304.0,,Starbucks,cafe,POINT (-122.1140559 47.6707916),47.6707916,-122.1140559
188,1028669255.0,,Village Square Cafe,cafe,POINT (-122.124949 47.6788593),47.6788593,-122.124949
189,1030892566.0,,Zoka Coffee - Kirkland,cafe,POINT (-122.207194 47.6763592),47.6763592,-122.207194
190,1030894537.0,,Jimmy John's,fast_food,POINT (-122.2085004 47.6764951),47.6764951,-122.2085004
191,1030908936.0,,Shamiana,restaurant,POINT (-122.1972029 47.6669371),47.6669371,-122.1972029
192,1055365424.0,,Starbucks,cafe,POINT (-122.125866 47.6810254),47.6810254,-122.125866
193,1055368680.0,,Sushi Land,restaurant,POINT (-122.1229272 47.6813625),47.6813625,-122.1229272
194,1056103990.0,,Starbucks,cafe,POINT (-122.2565724 47.4556087),47.4556087,-122.2565724
195,1070195857.0,,Subway,fast_food,POINT (-122.3443862 47.7192687),47.7192687,-122.3443862
196,1077620652.0,,Starbucks,cafe,POINT (-122.3339641 47.6015625),47.6015625,-122.3339641
197,1078173888.0,,Racha Noodle & Thai,restaurant,POINT (-122.1234744 47.6820117),47.6820117,-122.1234744
198,1086723127.0,,Thai Bistro,restaurant,POINT (-122.3441936 47.7625053),47.7625053,-122.3441936
199,1092119087.0,,Como,restaurant,POINT (-122.2075474 47.6568752),47.6568752,-122.2075474
200,1099460998.0,,Taste of Xi'an,restaurant,POINT (-122.3133017 47.6619742),47.6619742,-122.3133017
201,1103954941.0,,Sunrise Cafe,cafe,POINT (-122.1305741 47.6694091),47.6694091,-122.1305741
202,1115815658.0,,Purple Cafe and Wine Bar - Bellevue,restaurant,POINT (-122.1985886 47.6140742),47.6140742,-122.1985886
203,1120195095.0,,Cafe Piccolo,restaurant,POINT (-122.3173709 47.6968584),47.6968584,-122.3173709
204,1125487659.0,,Tony Maroni's,fast_food,POINT (-122.0418174 47.6943854),47.6943854,-122.0418174
205,1125487671.0,,Sorrento's Coffee,cafe,POINT (-122.0425584 47.6944229),47.6944229,-122.0425584
206,1125487703.0,,Himitsu,restaurant,POINT (-122.0408934 47.694571),47.694571,-122.0408934
207,1127248835.0,,Capitol Lounge,bar,POINT (-122.3199026 47.6142159),47.6142159,-122.3199026
208,1127249885.0,,Via Tribunali - Capitol Hill,restaurant,POINT (-122.3199899 47.6139546),47.6139546,-122.3199899
209,1128319453.0,,Rain City Burgers,fast_food,POINT (-122.3175127 47.6759478),47.6759478,-122.3175127
210,1128319495.0,,Bengal Tiger,restaurant,POINT (-122.3175071 47.6761594),47.6761594,-122.3175071
211,1128319502.0,,Taco Del Mar,fast_food,POINT (-122.3160243 47.675689),47.675689,-122.3160243
212,1128349343.0,,Café Urban Bakery,cafe,POINT (-122.336541 47.6857444),47.6857444,-122.336541
213,1132358730.0,,Starbucks,cafe,POINT (-122.1982467 47.6164668),47.6164668,-122.1982467
214,1132416923.0,,Jimmy John's,fast_food,POINT (-122.1965762 47.616264),47.616264,-122.1965762
215,1132416942.0,,Topolino Pizza,restaurant,POINT (-122.198344 47.617114),47.617114,-122.198344
216,1132416966.0,,City Soup,cafe,POINT (-122.1965797 47.6162167),47.6162167,-122.1965797
217,1132416993.0,,Starbucks,cafe,POINT (-122.1965739 47.6158285),47.6158285,-122.1965739
218,1134581421.0,,Miyakos Teriyaki & Wok,restaurant,POINT (-122.0241043 47.6999254),47.6999254,-122.0241043
219,1135074952.0,,Pasta Nova,restaurant,POINT (-122.1522394 47.7531936),47.7531936,-122.1522394
220,1145788549.0,,Santorini Greek Grill,restaurant,POINT (-122.2080093 47.6765461),47.6765461,-122.2080093
221,1148149205.0,,The French Bakery,cafe,POINT (-122.1914737 47.618489),47.618489,-122.1914737
222,1152272191.0,,Day Break Cafe,cafe,POINT (-122.1941741 47.6180684),47.6180684,-122.1941741
223,1152306298.0,,Top Pot Doughnuts,cafe,POINT (-122.1988289 47.6185883),47.6185883,-122.1988289
224,1157113336.0,,Anchorhead Coffee Co,cafe,POINT (-122.1941075 47.6151634),47.6151634,-122.1941075
225,1158383854.0,,Café On The Ave,cafe,POINT (-122.3133866 47.6584393),47.6584393,-122.3133866
226,1158397930.0,,Costa's,restaurant,POINT (-122.3132817 47.6629735),47.6629735,-122.3132817
227,1158397939.0,,Wow Bubble Tea,cafe,POINT (-122.3132723 47.6628191),47.6628191,-122.3132723
228,1158399177.0,,Hawaii BBQ,restaurant,POINT (-122.3132694 47.6627283),47.6627283,-122.3132694
229,1158402196.0,,Red Pepper,restaurant,POINT (-122.3132864 47.662607),47.662607,-122.3132864
230,1158403590.0,,Thai Tom,restaurant,POINT (-122.3132911 47.6625207),47.6625207,-122.3132911
231,1158405161.0,,Aladdin Falafel,restaurant,POINT (-122.3132934 47.6624595),47.6624595,-122.3132934
232,1158405907.0,,Garam Masala,restaurant,POINT (-122.3132972 47.6624056),47.6624056,-122.3132972
233,1158411183.0,,Oasis Tea Zone,cafe,POINT (-122.3129464 47.6620812),47.6620812,-122.3129464
234,1158415808.0,,Just Burgers,restaurant,POINT (-122.3129247 47.6616455),47.6616455,-122.3129247
235,1158416710.0,,Little Kitchen,cafe,POINT (-122.312966 47.661549),47.661549,-122.312966
236,1159430106.0,,Sureshot Cafe,cafe,POINT (-122.3133018 47.6614794),47.6614794,-122.3133018
237,1173911104.0,,El Gaucho,restaurant,POINT (-122.1943677 47.6147299),47.6147299,-122.1943677
238,1177562515.0,,Marination Ma Kai,restaurant,POINT (-122.3805148 47.589453),47.589453,-122.3805148
239,1177562523.0,,Salty's,restaurant,POINT (-122.3763922 47.586573),47.586573,-122.3763922
240,1178248386.0,,Royal India Grill,restaurant,POINT (-122.3863302 47.5817204),47.5817204,-122.3863302
241,1178248390.0,,Heartland Cafe,cafe,POINT (-122.385724 47.5813387),47.5813387,-122.385724
242,1178248392.0,,Arthur's,restaurant,POINT (-122.3866909 47.5825553),47.5825553,-122.3866909
243,1178248409.0,,Mission,restaurant,POINT (-122.386715 47.5822532),47.5822532,-122.386715
244,1178248415.0,,Yen Wor Village,restaurant,POINT (-122.3862617 47.5828828),47.5828828,-122.3862617
245,1178319387.0,,Herkimer Coffee - Ravenna,cafe,POINT (-122.3132234 47.669801),47.669801,-122.3132234
246,1178349194.0,,Starbucks,cafe,POINT (-122.3353602 47.580644),47.580644,-122.3353602
247,1179673971.0,,Chipotle,fast_food,POINT (-122.0493095 47.5434384),47.5434384,-122.0493095
248,1179678313.0,,Panera Bread,fast_food,POINT (-122.0499318 47.5429894),47.5429894,-122.0499318
249,1179680143.0,,Taco Time,fast_food,POINT (-122.0534964 47.5449366),47.5449366,-122.0534964
250,1179682489.0,,Subway,fast_food,POINT (-122.0558112 47.5451693),47.5451693,-122.0558112
251,1179690851.0,,Round Table Pizza,restaurant,POINT (-122.0491145 47.5446306),47.5446306,-122.0491145
252,1179772202.0,,McDonald's,fast_food,POINT (-122.043476 47.5527163),47.5527163,-122.043476
253,1179908399.0,,Jak's Grill,restaurant,POINT (-122.0363951 47.5303803),47.5303803,-122.0363951
254,1179908449.0,,Jokers Pub,bar,POINT (-122.0428052 47.5513843),47.5513843,-122.0428052
255,1185017804.0,,Jimmy John's,fast_food,POINT (-122.0336251 47.6159012),47.6159012,-122.0336251
256,1185022680.0,,Starbucks,cafe,POINT (-122.0337091 47.6147976),47.6147976,-122.0337091
257,1187730810.0,,Cactus - Alki Beach,restaurant,POINT (-122.4130535 47.5782717),47.5782717,-122.4130535
258,1191231791.0,,Papa Murphy's,fast_food,POINT (-122.0251851 47.69898),47.69898,-122.0251851
259,1191744014.0,,Domino's,fast_food,POINT (-122.0345544 47.613347),47.613347,-122.0345544
260,1191784959.0,,Nasai Teriyaki,restaurant,POINT (-122.0337328 47.6140515),47.6140515,-122.0337328
261,1194793097.0,,Comet Tavern,bar,POINT (-122.3196324 47.6142126),47.6142126,-122.3196324
262,1194800768.0,,Big Mario's Pizza,restaurant,POINT (-122.3188233 47.6139817),47.6139817,-122.3188233
263,1197964266.0,,Subway,fast_food,POINT (-122.3294652 47.5789347),47.5789347,-122.3294652
264,1199361856.0,,Ooba's Mex Grill,restaurant,POINT (-122.130095 47.6768185),47.6768185,-122.130095
265,1200781641.0,,In Bocca al Lupo,restaurant,POINT (-122.350174 47.6591419),47.6591419,-122.350174
266,1200781646.0,,Caffe Vita,cafe,POINT (-122.3501761 47.659062),47.659062,-122.3501761
267,1206853622.0,,Wild Ginger,restaurant,POINT (-122.2013763 47.6149729),47.6149729,-122.2013763
268,1206920179.0,,Papa John's,fast_food,POINT (-122.0358714 47.6160965),47.6160965,-122.0358714
269,1212280057.0,,Chutneys,restaurant,POINT (-122.1934009 47.6183123),47.6183123,-122.1934009
270,1212280181.0,,Kobe,restaurant,POINT (-122.193417 47.6180754),47.6180754,-122.193417
271,1213922799.0,,Frying Fish,restaurant,POINT (-122.1542052 47.6269679),47.6269679,-122.1542052
272,1213922824.0,,Papa Murphy's,fast_food,POINT (-122.1544172 47.6269661),47.6269661,-122.1544172
273,1216903356.0,,Slate Coffee Roasters,cafe,POINT (-122.3324465 47.6025255),47.6025255,-122.3324465
274,1216903483.0,,Thai Taste,restaurant,POINT (-122.332846 47.6023199),47.6023199,-122.332846
275,1216904369.0,,Chuck's Hole in the Wall Barbecue,restaurant,POINT (-122.331723 47.6025012),47.6025012,-122.331723
276,1216908751.0,,Happy Garden Chinese Cuisine,restaurant,POINT (-122.332014 47.6031259),47.6031259,-122.332014
277,1217650391.0,,Eltana Bagels,cafe,POINT (-122.316641 47.615021),47.615021,-122.316641
278,1217745663.0,,Pomegranate Bistro,restaurant,POINT (-122.0995243 47.6664531),47.6664531,-122.0995243
279,1217780408.0,,Family Pancake House,restaurant,POINT (-122.1044018 47.6684355),47.6684355,-122.1044018
280,1223295896.0,,Pho Than Brothers,restaurant,POINT (-122.3211171 47.6238838),47.6238838,-122.3211171
281,1234296252.0,,Caffe Ladro,cafe,POINT (-122.208106 47.6765294),47.6765294,-122.208106
282,1234306561.0,,Hanuman Thai Café,restaurant,POINT (-122.2075082 47.6763092),47.6763092,-122.2075082
283,1234307039.0,,Zeeks Pizza - Kirkland,restaurant,POINT (-122.2058461 47.6762669),47.6762669,-122.2058461
284,1234307240.0,,Taco Del Mar,fast_food,POINT (-122.204755 47.676643),47.676643,-122.204755
285,1234307419.0,,Subway,fast_food,POINT (-122.2039073 47.6771324),47.6771324,-122.2039073
286,1234307482.0,,Papa John's,fast_food,POINT (-122.2036345 47.6768124),47.6768124,-122.2036345
287,1234308083.0,,Time Out Sports Bar,bar,POINT (-122.205243 47.6771671),47.6771671,-122.205243
288,1234308158.0,,Lynne Bistro,restaurant,POINT (-122.2053473 47.6771474),47.6771474,-122.2053473
289,1234308316.0,,Kobie Cafe,restaurant,POINT (-122.2058223 47.6770397),47.6770397,-122.2058223
290,1234308907.0,,Sampan Noodle,restaurant,POINT (-122.2078154 47.6765902),47.6765902,-122.2078154
291,1234309418.0,,Ariana,restaurant,POINT (-122.2084407 47.6762282),47.6762282,-122.2084407
292,1235037503.0,,Starbucks,cafe,POINT (-122.0261338 47.6987658),47.6987658,-122.0261338
293,1236363440.0,,Sammamish Cafe & Spirits,restaurant,POINT (-122.0338741 47.6169223),47.6169223,-122.0338741
294,1237352093.0,,Poquitos,restaurant,POINT (-122.319201 47.6142354),47.6142354,-122.319201
295,1240053931.0,,Subway,fast_food,POINT (-122.0361423 47.6155921),47.6155921,-122.0361423
296,1240054353.0,,Papa Murphy's,fast_food,POINT (-122.0362496 47.6156952),47.6156952,-122.0362496
297,1241053956.0,,Tropea Ristorante Italiano,restaurant,POINT (-122.1235673 47.6801602),47.6801602,-122.1235673
298,1241054638.0,,Namaste Indian,restaurant,POINT (-122.1237389 47.6801614),47.6801614,-122.1237389
299,1241054945.0,,Sip Thai Bistro,restaurant,POINT (-122.1238247 47.680162),47.680162,-122.1238247
300,1241063653.0,,Gyro World Greek Cafe,restaurant,POINT (-122.1252173 47.6801713),47.6801713,-122.1252173
301,1241065021.0,,Papa John's,fast_food,POINT (-122.125303 47.6801719),47.6801719,-122.125303
302,1241180008.0,,Peet's Coffee,cafe,POINT (-122.102626 47.6669937),47.6669937,-122.102626
303,1241180080.0,,Chipotle,fast_food,POINT (-122.102327 47.6672916),47.6672916,-122.102327
304,1242259127.0,,Fatburger,restaurant,POINT (-122.1117952 47.6704417),47.6704417,-122.1117952
305,1242264023.0,,Papa Murphy's,fast_food,POINT (-122.1111082 47.670276),47.670276,-122.1111082
306,1243260800.0,,Yummy Teriyaki,restaurant,POINT (-122.1099678 47.6726114),47.6726114,-122.1099678
307,1245785988.0,,J&M Cafe,restaurant,POINT (-122.3344084 47.6007703),47.6007703,-122.3344084
308,1248749815.0,,Zapverr,restaurant,POINT (-122.3495767 47.6499101),47.6499101,-122.3495767
309,1248758907.0,,Pho Than Brothers,restaurant,POINT (-122.3501408 47.649881),47.649881,-122.3501408
310,1248840408.0,,Kaosamai,restaurant,POINT (-122.3540934 47.6523605),47.6523605,-122.3540934
311,1248841837.0,,Roxy's Diner,restaurant,POINT (-122.3527429 47.6520205),47.6520205,-122.3527429
312,1248842813.0,,Talarico's Fremont,restaurant,POINT (-122.353006 47.6521396),47.6521396,-122.353006
313,1248843027.0,,Caffe Ladro,cafe,POINT (-122.3532394 47.6521307),47.6521307,-122.3532394
314,1250696405.0,,Poco Wine and Spirits,bar,POINT (-122.3135746 47.6154362),47.6154362,-122.3135746
315,1257414155.0,,Agave Cocina & Cantina - Redmond,restaurant,POINT (-122.1118977 47.6719582),47.6719582,-122.1118977
316,1258946564.0,,Mezcal Grill,restaurant,POINT (-122.2114406 47.7067684),47.7067684,-122.2114406
317,1258947151.0,,Urban Coffee Lounge,cafe,POINT (-122.211437 47.7072009),47.7072009,-122.211437
318,1260612612.0,,Monster Sushi,restaurant,POINT (-122.047171 47.5442281),47.5442281,-122.047171
319,1271644809.0,,Chantanee,restaurant,POINT (-122.1971173 47.6157484),47.6157484,-122.1971173
320,1271649364.0,,Earls Kitchen & Bar,restaurant,POINT (-122.2014378 47.6163036),47.6163036,-122.2014378
321,1271661516.0,,P.F. Chang's,restaurant,POINT (-122.201971 47.616834),47.616834,-122.201971
322,1271661890.0,,McCormick & Schmick's,restaurant,POINT (-122.2014558 47.616861),47.616861,-122.2014558
323,1271662500.0,,Joey,restaurant,POINT (-122.201437 47.6177957),47.6177957,-122.201437
324,1271662639.0,,Starbucks,cafe,POINT (-122.201985 47.6170396),47.6170396,-122.201985
325,1271663393.0,,Vivo 53,restaurant,POINT (-122.2019574 47.6164741),47.6164741,-122.2019574
326,1273494241.0,,Mas Café,cafe,POINT (-122.3345878 47.6481547),47.6481547,-122.3345878
327,1276548279.0,,Starbucks,cafe,POINT (-122.0264764 47.6451947),47.6451947,-122.0264764
328,1279299987.0,,Subway,fast_food,POINT (-122.3121592 47.7190365),47.7190365,-122.3121592
329,1292324490.0,,Almanqal Mediterranean Grill,restaurant,POINT (-122.3369848 47.6614949),47.6614949,-122.3369848
330,1292326101.0,,Chocolati Café,cafe,POINT (-122.336844 47.6614926),47.6614926,-122.336844
331,1292326964.0,,Jhanjay Vegetarian Thai Cuisine,restaurant,POINT (-122.3367749 47.6615191),47.6615191,-122.3367749
332,1292328940.0,,Dumpling the Noodle,restaurant,POINT (-122.3364392 47.6612786),47.6612786,-122.3364392
333,1292328941.0,,Pam's Kitchen,restaurant,POINT (-122.3366054 47.6612777),47.6612777,-122.3366054
334,1292329229.0,,Harvest Beat,restaurant,POINT (-122.3368004 47.6612786),47.6612786,-122.3368004
335,1292330295.0,,Fuel,cafe,POINT (-122.336944 47.6612827),47.6612827,-122.336944
336,1292453901.0,,Eve,restaurant,POINT (-122.3493242 47.6496345),47.6496345,-122.3493242
337,1292540983.0,,Chinook's at Salmon Bay,restaurant,POINT (-122.3811821 47.6555838),47.6555838,-122.3811821
338,1293637018.0,,Stampede Cocktail Club,bar,POINT (-122.3567849 47.6525775),47.6525775,-122.3567849
339,1296887743.0,,Starbucks,cafe,POINT (-122.3400728 47.6299509),47.6299509,-122.3400728
340,1297401661.0,,China Harbor,restaurant,POINT (-122.3399752 47.6374143),47.6374143,-122.3399752
341,1297521123.0,,Boathouse Deli,cafe,POINT (-122.3398693 47.6353957),47.6353957,-122.3398693
342,1297735616.0,,Starbucks,cafe,POINT (-122.308621 47.6556026),47.6556026,-122.308621
343,1298720667.0,,Sushi Tokyo,restaurant,POINT (-122.3175688 47.6745277),47.6745277,-122.3175688
344,1298727855.0,,Olympic Pizza & Pasta,restaurant,POINT (-122.3175098 47.6754261),47.6754261,-122.3175098
345,1298729750.0,,Royal Palm,restaurant,POINT (-122.3175045 47.6756157),47.6756157,-122.3175045
346,1298804234.0,,Starbucks,cafe,POINT (-122.3164401 47.6756608),47.6756608,-122.3164401
347,1300412359.0,,Dreamland,restaurant,POINT (-122.351523 47.6500149),47.6500149,-122.351523
348,1305387335.0,,Royal Grinders,fast_food,POINT (-122.3507373 47.6513311),47.6513311,-122.3507373
349,1305387369.0,,E.T.G. Coffee,cafe,POINT (-122.3504187 47.6509602),47.6509602,-122.3504187
350,1305391724.0,,Triangle Spirits,bar,POINT (-122.3508326 47.6508151),47.6508151,-122.3508326
351,1306266678.0,,Solsticio Cafe,cafe,POINT (-122.3431933 47.6484836),47.6484836,-122.3431933
352,1306424413.0,,Local Tide,restaurant,POINT (-122.3538952 47.6519456),47.6519456,-122.3538952
353,1308152010.0,,Lighthouse Roasters,cafe,POINT (-122.3542449 47.6590626),47.6590626,-122.3542449
354,1308163937.0,,Hattie's Hat,bar,POINT (-122.3830931 47.6661245),47.6661245,-122.3830931
355,1309515704.0,,I Love Teriyaki,fast_food,POINT (-122.3431612 47.6489046),47.6489046,-122.3431612
356,1313765037.0,,Starbucks,cafe,POINT (-122.3165764 47.6093696),47.6093696,-122.3165764
357,1316304039.0,,By George,fast_food,POINT (-122.3105055 47.6562507),47.6562507,-122.3105055
358,1328054593.0,,Panwa Thai,fast_food,POINT (-122.31656 47.6096999),47.6096999,-122.31656
359,1329182012.0,,Subway,fast_food,POINT (-122.3165649 47.6094924),47.6094924,-122.3165649
360,1332014994.0,,Dacha Diner,restaurant,POINT (-122.3265279 47.6176017),47.6176017,-122.3265279
361,1332014999.0,,Speckled & Drake,bar,POINT (-122.3275833 47.6166484),47.6166484,-122.3275833
362,1332015004.0,,Knee High Stocking Co.,bar,POINT (-122.327413 47.616968),47.616968,-122.327413
363,1372948758.0,,El Toreador,restaurant,POINT (-122.1232097 47.6736384),47.6736384,-122.1232097
364,1380602517.0,,,cafe,POINT (-122.122344 47.6779991),47.6779991,-122.122344
365,1383737543.0,,Caffe Vita,cafe,POINT (-122.3190238 47.6138902),47.6138902,-122.3190238
366,1385481122.0,,Cafe Lulu,cafe,POINT (-122.3255978 47.6756476),47.6756476,-122.3255978
367,1387761614.0,,Maltby Pizza & Pasta,restaurant,POINT (-122.1136512 47.8053203),47.8053203,-122.1136512
368,1387947219.0,,Unicorn Bar,bar,POINT (-122.3171081 47.6142292),47.6142292,-122.3171081
369,1398967880.0,,Mediterranean Mix,cafe,POINT (-122.334398 47.6006761),47.6006761,-122.334398
370,1398968948.0,,Alstadt,restaurant,POINT (-122.3343914 47.600512),47.600512,-122.3343914
371,1398969694.0,,I5 Pho,restaurant,POINT (-122.3343945 47.6003478),47.6003478,-122.3343945
372,1398970156.0,,Berliner,restaurant,POINT (-122.33441 47.6002002),47.6002002,-122.33441
373,1403865493.0,,Bobae Coffee and Tea,cafe,POINT (-122.1520554 47.7534059),47.7534059,-122.1520554
374,1405071727.0,,Jamba Juice,fast_food,POINT (-122.1549791 47.7546944),47.7546944,-122.1549791
375,1411667988.0,,Chipotle,fast_food,POINT (-122.3133406 47.6592428),47.6592428,-122.3133406
376,1411669004.0,,Aladdin Gyro-cery & Deli,restaurant,POINT (-122.3133866 47.6579925),47.6579925,-122.3133866
377,1411670996.0,,Saigon Deli,restaurant,POINT (-122.3142098 47.6581295),47.6581295,-122.3142098
378,1411671077.0,,Pho Shizzle Too!,restaurant,POINT (-122.3133401 47.6593411),47.6593411,-122.3133401
379,1411671655.0,,China First,restaurant,POINT (-122.313348 47.6594156),47.6594156,-122.313348
380,1411673991.0,,Bulldog News,cafe,POINT (-122.3130437 47.6585573),47.6585573,-122.3130437
381,1411674734.0,,Rancho Bravo Tacos,restaurant,POINT (-122.3133282 47.6595358),47.6595358,-122.3133282
382,1411675169.0,,Samurai Noodle,restaurant,POINT (-122.3130645 47.6579661),47.6579661,-122.3130645
383,1411675303.0,,Best of Bento,restaurant,POINT (-122.3133326 47.6596112),47.6596112,-122.3133326
384,1411675888.0,,Pho Than Brothers,restaurant,POINT (-122.3133668 47.6586007),47.6586007,-122.3133668
385,1411676388.0,,BB's Teriyaki Grill,restaurant,POINT (-122.313368 47.6589856),47.6589856,-122.313368
386,1411679342.0,,The Block,restaurant,POINT (-122.3133634 47.658659),47.658659,-122.3133634
387,1411679729.0,,Ichiro,fast_food,POINT (-122.3127738 47.6574994),47.6574994,-122.3127738
388,1411679900.0,,Burger Hut,fast_food,POINT (-122.3130727 47.6580857),47.6580857,-122.3130727
389,1411680004.0,,Starbucks,cafe,POINT (-122.3134196 47.658195),47.658195,-122.3134196
390,1411680029.0,,University Kitchen,restaurant,POINT (-122.3130756 47.6571914),47.6571914,-122.3130756
391,1411680133.0,,Henry's Taiwan Kitchen,restaurant,POINT (-122.31417 47.6569986),47.6569986,-122.31417
392,1411680134.0,,Guanaco's Tacos & Pupuseria,restaurant,POINT (-122.3141689 47.6571228),47.6571228,-122.3141689
393,1411680136.0,,Green House,restaurant,POINT (-122.3141679 47.6572231),47.6572231,-122.3141679
394,1411680588.0,,Shultzy's Bar And Grill,restaurant,POINT (-122.3130587 47.6573018),47.6573018,-122.3130587
395,1411680620.0,,Thai65,restaurant,POINT (-122.3130382 47.6587941),47.6587941,-122.3130382
396,1411681237.0,,GuǒC100,restaurant,POINT (-122.313987 47.6569977),47.6569977,-122.313987
397,1411681473.0,,bb-q chicken,restaurant,POINT (-122.3133669 47.6590369),47.6590369,-122.3133669
398,1411682582.0,,Cafe Solstice,cafe,POINT (-122.3130573 47.6574105),47.6574105,-122.3130573
399,1437179292.0,,Moonlight Cafe,restaurant,POINT (-122.3067239 47.5989882),47.5989882,-122.3067239
400,1438943256.0,,Kanishka,restaurant,POINT (-122.117822 47.6724786),47.6724786,-122.117822
401,1489935290.0,,Diva Espresso,cafe,POINT (-122.3419463 47.6627178),47.6627178,-122.3419463
402,1492966695.0,,Chipotle,fast_food,POINT (-122.1998673 47.6135929),47.6135929,-122.1998673
403,1497906336.0,,Bryant Corner Cafe and Bakery,restaurant,POINT (-122.2931958 47.6759094),47.6759094,-122.2931958
404,1539274991.0,,Liberty,bar,POINT (-122.3128271 47.6235665),47.6235665,-122.3128271
405,1539274992.0,,Top Pot Doughnuts,cafe,POINT (-122.3254759 47.6246357),47.6246357,-122.3254759
406,1539274997.0,,Jamjuree,restaurant,POINT (-122.3128279 47.6234297),47.6234297,-122.3128279
407,1539274998.0,,Victrola Coffee Roasters,cafe,POINT (-122.3128291 47.6223517),47.6223517,-122.3128291
408,1539274999.0,,Coastal Kitchen,restaurant,POINT (-122.3128146 47.6227765),47.6227765,-122.3128146
409,1563323333.0,,Rapport,restaurant,POINT (-122.3210851 47.6253026),47.6253026,-122.3210851
410,1563323408.0,,OddFellows Cafe,restaurant,POINT (-122.31965 47.6149543),47.6149543,-122.31965
411,1564254574.0,,Cafe Van Gogh,cafe,POINT (-122.2901737 47.6889314),47.6889314,-122.2901737
412,1564280658.0,,Wedgwood Broiler,restaurant,POINT (-122.2902166 47.6893214),47.6893214,-122.2902166
413,1583423037.0,,Fremont Bowl,restaurant,POINT (-122.3498788 47.659079),47.659079,-122.3498788
414,1589804488.0,,Starbucks,cafe,POINT (-122.2352494 47.5864226),47.5864226,-122.2352494
415,1592278803.0,,Starbucks,cafe,POINT (-122.1862546 47.6210026),47.6210026,-122.1862546
416,1597132764.0,,Kamakura Japanese Cuisine,restaurant,POINT (-122.349716 47.6511647),47.6511647,-122.349716
417,1597141275.0,,Esters Enoteca,restaurant,POINT (-122.3496228 47.6501282),47.6501282,-122.3496228
418,1602486609.0,,Caffé Fiore,cafe,POINT (-122.3862776 47.5836323),47.5836323,-122.3862776
419,1607121865.0,,Bathtub Gin,bar,POINT (-122.3449673 47.6130973),47.6130973,-122.3449673
420,1610913839.0,,Sizzling Pot King,restaurant,POINT (-122.32452 47.5984672),47.5984672,-122.32452
421,1611112411.0,,Maximilien,restaurant,POINT (-122.3408538 47.6083167),47.6083167,-122.3408538
422,1615253594.0,,Starbucks,cafe,POINT (-122.3369538 47.6228655),47.6228655,-122.3369538
423,1627742116.0,,Beyond The Bowl,restaurant,POINT (-122.2946574 47.7197764),47.7197764,-122.2946574
424,1630958084.0,,Lucy's Corner,restaurant,POINT (-122.3452442 47.6148308),47.6148308,-122.3452442
425,1630958085.0,,Uptown Espresso,cafe,POINT (-122.3462858 47.6169346),47.6169346,-122.3462858
426,1630958088.0,,Top Pot Doughnuts,cafe,POINT (-122.3412437 47.61515),47.61515,-122.3412437
427,1636375814.0,,Starbucks,cafe,POINT (-122.2941474 47.4356152),47.4356152,-122.2941474
428,1636375816.0,,SeaPort Restaurant,restaurant,POINT (-122.2940777 47.4355771),47.4355771,-122.2940777
429,1636375830.0,,SeaPort Lounge,bar,POINT (-122.2939891 47.4355989),47.4355989,-122.2939891
430,1639988283.0,,Royal India,restaurant,POINT (-122.2122541 47.705099),47.705099,-122.2122541
431,1657290052.0,,Starbucks,cafe,POINT (-122.1674868 47.5783617),47.5783617,-122.1674868
432,1657290053.0,,Tokyo Japanese,restaurant,POINT (-122.1678848 47.5793693),47.5793693,-122.1678848
433,1667911178.0,,Starbucks,cafe,POINT (-122.363926 47.7015346),47.7015346,-122.363926
434,1668178497.0,,Sinbad Express,restaurant,POINT (-122.3507589 47.6512525),47.6512525,-122.3507589
435,1669353856.0,,The Backdoor,bar,POINT (-122.3527605 47.6523273),47.6523273,-122.3527605
436,1669418041.0,,Kwanjai Thai,restaurant,POINT (-122.3526101 47.6516655),47.6516655,-122.3526101
437,1669418958.0,,Rasai,restaurant,POINT (-122.3525145 47.6516224),47.6516224,-122.3525145
438,1669421694.0,,Nuna Ramen,restaurant,POINT (-122.3522739 47.6515915),47.6515915,-122.3522739
439,1680933441.0,,Pho Hao,restaurant,POINT (-122.1611687 47.7534927),47.7534927,-122.1611687
440,1682788576.0,,Cafe Javasti,cafe,POINT (-122.290881 47.6914198),47.6914198,-122.290881
441,1687890262.0,,Regent Bakery and Café,restaurant,POINT (-122.3140811 47.615416),47.615416,-122.3140811
442,1689241358.0,,Thai Cottage,restaurant,POINT (-122.377637 47.8108294),47.8108294,-122.377637
443,1695049650.0,,Cantinetta,restaurant,POINT (-122.3361496 47.6518718),47.6518718,-122.3361496
444,1695204259.0,,Caffe Vita,cafe,POINT (-122.3477236 47.6267583),47.6267583,-122.3477236
445,1695204287.0,,Lazy Susan,restaurant,POINT (-122.3477368 47.6270447),47.6270447,-122.3477368
446,1695204292.0,,Genki Sushi Inc,restaurant,POINT (-122.347276 47.6248892),47.6248892,-122.347276
447,1695212221.0,,Wayward Vegan Café,cafe,POINT (-122.3198784 47.6757068),47.6757068,-122.3198784
448,1701717561.0,,ReBoot,cafe,POINT (-122.3057633 47.6533583),47.6533583,-122.3057633
449,1703436996.0,,Market Arms,bar,POINT (-122.3879015 47.6684943),47.6684943,-122.3879015
450,1713727901.0,,VoVina,bar,POINT (-122.2073431 47.6760076),47.6760076,-122.2073431
451,1716388131.0,,Ella's Deli,restaurant,POINT (-122.1958042 47.8028625),47.8028625,-122.1958042
452,1716414505.0,,Mazatlan Mexican Restaurant,restaurant,POINT (-122.3130445 47.7779287),47.7779287,-122.3130445
453,1716949621.0,,Common Ground Coffee & Cupcakes,cafe,POINT (-122.2052884 47.4797754),47.4797754,-122.2052884
454,1721406962.0,,Piatti Ristorante & Bar,restaurant,POINT (-122.2979545 47.6621695),47.6621695,-122.2979545
455,1725980819.0,,Starbucks,cafe,POINT (-122.2997452 47.662684),47.662684,-122.2997452
456,1725980830.0,,Voula's Offshore Cafe,restaurant,POINT (-122.321519 47.6546633),47.6546633,-122.321519
457,1726065084.0,,Agua Verde Café,restaurant,POINT (-122.3143795 47.6516032),47.6516032,-122.3143795
458,1726065091.0,,Zoka Coffee - University,cafe,POINT (-122.2972079 47.6658287),47.6658287,-122.2972079
459,1726088084.0,,El Gallito,restaurant,POINT (-122.3058853 47.6175236),47.6175236,-122.3058853
460,1726088089.0,,Starbucks,cafe,POINT (-122.280812 47.6341044),47.6341044,-122.280812
461,1726737132.0,,Caffe Ladro,cafe,POINT (-122.3128173 47.6229877),47.6229877,-122.3128173
462,1726737138.0,,Vios,restaurant,POINT (-122.3075175 47.6270436),47.6270436,-122.3075175
463,1726831672.0,,Bennetts,restaurant,POINT (-122.2360398 47.5869343),47.5869343,-122.2360398
464,1726831680.0,,Starbucks,cafe,POINT (-122.2369048 47.5870799),47.5870799,-122.2369048
465,1728576386.0,,BluWater Bistro,restaurant,POINT (-122.2849774 47.6017581),47.6017581,-122.2849774
466,1728576387.0,,Daniel's Broiler,restaurant,POINT (-122.2842541 47.6029635),47.6029635,-122.2842541
467,1728576388.0,,I Love Pho,restaurant,POINT (-122.2366661 47.5865763),47.5865763,-122.2366661
468,1728576391.0,,McDonald's,fast_food,POINT (-122.2345236 47.5853864),47.5853864,-122.2345236
469,1728576394.0,,Subway,fast_food,POINT (-122.2356549 47.5864282),47.5864282,-122.2356549
470,1729727407.0,,Caffé Vita,cafe,POINT (-122.2701248 47.5560767),47.5560767,-122.2701248
471,1729930560.0,,Tutta Bella Neapolitan Pizzeria,restaurant,POINT (-122.2845232 47.5572106),47.5572106,-122.2845232
472,1730688063.0,,Geraldine's Counter,restaurant,POINT (-122.2849069 47.557967),47.557967,-122.2849069
473,1730821230.0,,QED Coffee,cafe,POINT (-122.2922255 47.5896845),47.5896845,-122.2922255
474,1730821255.0,,That's Amore Italian Cafe,restaurant,POINT (-122.292667 47.5895405),47.5895405,-122.292667
475,1730893498.0,,Starbucks,cafe,POINT (-122.2853582 47.6020673),47.6020673,-122.2853582
476,1730897376.0,,Pazzo's Pizza & Bar,restaurant,POINT (-122.326081 47.6401027),47.6401027,-122.326081
477,1730897388.0,,Pomodoro Ristoranta,restaurant,POINT (-122.3256927 47.641426),47.641426,-122.3256927
478,1730897392.0,,Subway,fast_food,POINT (-122.3255151 47.6395055),47.6395055,-122.3255151
479,1730897396.0,,Teriyaki,restaurant,POINT (-122.3255116 47.6392879),47.6392879,-122.3255116
480,1730897401.0,,The 14 Carrot Cafe - Breakfast & Lunch,restaurant,POINT (-122.326075 47.6399638),47.6399638,-122.326075
481,1730897404.0,,Eastlake Zoo Tavern,bar,POINT (-122.3261163 47.6398898),47.6398898,-122.3261163
482,1731277185.0,,Circa,restaurant,POINT (-122.3868229 47.5809008),47.5809008,-122.3868229
483,1733095247.0,,Starbucks,cafe,POINT (-122.3321125 47.7082253),47.7082253,-122.3321125
484,1733419948.0,,Diva Espresso,cafe,POINT (-122.355787 47.7067227),47.7067227,-122.355787
485,1733419949.0,,Good Guys Pizza,restaurant,POINT (-122.3443954 47.7041271),47.7041271,-122.3443954
486,1733419951.0,,IHOP,restaurant,POINT (-122.3443873 47.7023384),47.7023384,-122.3443873
487,1733457160.0,,Burger King,fast_food,POINT (-122.3454212 47.7246216),47.7246216,-122.3454212
488,1733457162.0,,Jebena Cafe,cafe,POINT (-122.3119049 47.7141249),47.7141249,-122.3119049
489,1733457164.0,,Starbucks,cafe,POINT (-122.313121 47.7335331),47.7335331,-122.313121
490,1733457191.0,,Amante Pizza & Pasta,restaurant,POINT (-122.3184611 47.7184179),47.7184179,-122.3184611
491,1733685609.0,,Mongolian Grill,restaurant,POINT (-122.1555658 47.7546511),47.7546511,-122.1555658
492,1733685610.0,,Starbucks,cafe,POINT (-122.1554249 47.754817),47.754817,-122.1554249
493,1733685617.0,,Wendy's,fast_food,POINT (-122.1584124 47.7547117),47.7547117,-122.1584124
494,1733689121.0,,Chan's Place,restaurant,POINT (-122.1489052 47.7539275),47.7539275,-122.1489052
495,1733689124.0,,Subway,fast_food,POINT (-122.148926 47.7551636),47.7551636,-122.148926
496,1733690710.0,,Inchins Bamboo Garden,restaurant,POINT (-122.2115848 47.7979647),47.7979647,-122.2115848
497,1733696327.0,,Starbucks,cafe,POINT (-122.2057905 47.8092599),47.8092599,-122.2057905
498,1734782301.0,,Grateful Bread Baking Co,cafe,POINT (-122.2906625 47.6797002),47.6797002,-122.2906625
499,1734782304.0,,Starbucks,cafe,POINT (-122.2906477 47.6814027),47.6814027,-122.2906477
500,1735351311.0,,Vios Cafe,cafe,POINT (-122.3064262 47.6758876),47.6758876,-122.3064262
501,1735549633.0,,Razzi's Pizzeria,restaurant,POINT (-122.3555189 47.6911513),47.6911513,-122.3555189
502,1735589414.0,,Spice Box,fast_food,POINT (-122.32057 47.6146859),47.6146859,-122.32057
503,1735704790.0,,Garlic Crush,fast_food,POINT (-122.3209773 47.6136243),47.6136243,-122.3209773
504,1735751039.0,,Serafina,restaurant,POINT (-122.326077 47.6380666),47.6380666,-122.326077
505,1735751042.0,,Son of a Butcher,restaurant,POINT (-122.325512 47.6393506),47.6393506,-122.325512
506,1735751044.0,,Voxx Coffee,cafe,POINT (-122.3260753 47.6396282),47.6396282,-122.3260753
507,1735843879.0,,I Love Sushi,restaurant,POINT (-122.331801 47.6287722),47.6287722,-122.331801
508,1735873003.0,,Mioposto,restaurant,POINT (-122.2880998 47.5782015),47.5782015,-122.2880998
509,1735895505.0,,Skillet,restaurant,POINT (-122.314003 47.6130697),47.6130697,-122.314003
510,1735895518.0,,Cascina Spinasse,restaurant,POINT (-122.3143994 47.6150591),47.6150591,-122.3143994
511,1735895525.0,,Plenty of Clouds,restaurant,POINT (-122.3126003 47.6150995),47.6150995,-122.3126003
512,1735895560.0,,Marjorie,restaurant,POINT (-122.3135826 47.6130656),47.6130656,-122.3135826
513,1735895574.0,,Artusi,bar,POINT (-122.3143967 47.615173),47.615173,-122.3143967
514,1735968752.0,,Cafe Osita,cafe,POINT (-122.3768542 47.5358005),47.5358005,-122.3768542
515,1738744874.0,,Redmond's,bar,POINT (-122.122724 47.6744655),47.6744655,-122.122724
516,1739472328.0,,Starbucks,cafe,POINT (-122.1545979 47.6250215),47.6250215,-122.1545979
517,1740887062.0,,Sages Restaurant,restaurant,POINT (-122.1277078 47.6767931),47.6767931,-122.1277078
518,1748931245.0,,Starbucks,cafe,POINT (-122.3655602 47.5227467),47.5227467,-122.3655602
519,1748931246.0,,Taco Del Mar,fast_food,POINT (-122.3670723 47.5213799),47.5213799,-122.3670723
520,1750019220.0,,Bird on a Wire,cafe,POINT (-122.3772028 47.5227493),47.5227493,-122.3772028
521,1759230167.0,,The Melting Pot,restaurant,POINT (-122.1959537 47.6125886),47.6125886,-122.1959537
522,1765302438.0,,Hot Cakes,restaurant,POINT (-122.3857166 47.6680496),47.6680496,-122.3857166
523,1766985963.0,,Katy's Corner Cafe,cafe,POINT (-122.3060798 47.6130546),47.6130546,-122.3060798
524,1766985977.0,,Cafe Noir,cafe,POINT (-122.3051008 47.6132472),47.6132472,-122.3051008
525,1771065210.0,,Dubsea Coffee,cafe,POINT (-122.345077 47.5145496),47.5145496,-122.345077
526,1771090628.0,,Subway,fast_food,POINT (-122.3768796 47.6354438),47.6354438,-122.3768796
527,1771090631.0,,Magic Dragon,fast_food,POINT (-122.3767726 47.6354455),47.6354455,-122.3767726
528,1772884976.0,,Ballard Bar & Grill,restaurant,POINT (-122.3765633 47.6673017),47.6673017,-122.3765633
529,1772884979.0,,Subway,fast_food,POINT (-122.3759036 47.6674872),47.6674872,-122.3759036
530,1772997187.0,,KFC,fast_food,POINT (-122.359596 47.6244319),47.6244319,-122.359596
531,1772997191.0,,Sai Sushi & Sake,restaurant,POINT (-122.3576777 47.6244323),47.6244323,-122.3576777
532,1772997204.0,,Tup Tim Thai,restaurant,POINT (-122.3590167 47.6247356),47.6247356,-122.3590167
533,1772997215.0,,Taco Bell,fast_food,POINT (-122.3596014 47.6242945),47.6242945,-122.3596014
534,1773016338.0,,MOD Pizza,fast_food,POINT (-122.3499973 47.6500215),47.6500215,-122.3499973
535,1773166109.0,,Admiral Bird Cafe,cafe,POINT (-122.3863501 47.5810556),47.5810556,-122.3863501
536,1773166113.0,,Vidiot,bar,POINT (-122.3854596 47.5813415),47.5813415,-122.3854596
537,1773269726.0,,Tin Lizzie Lounge,bar,POINT (-122.3565255 47.6249289),47.6249289,-122.3565255
538,1774033170.0,,Kati Vegan Thai,restaurant,POINT (-122.3332743 47.6209307),47.6209307,-122.3332743
539,1774033179.0,,LunchBox Laboratory,restaurant,POINT (-122.3314423 47.6206366),47.6206366,-122.3314423
540,1774201701.0,,Mr. D's,restaurant,POINT (-122.3344863 47.579634),47.579634,-122.3344863
541,1774202185.0,,Starbucks,cafe,POINT (-122.357125 47.6382354),47.6382354,-122.357125
542,1774361993.0,,Panera Bread,fast_food,POINT (-122.110017 47.6710071),47.6710071,-122.110017
543,1776741841.0,,The Tin Hat,bar,POINT (-122.3629711 47.6760806),47.6760806,-122.3629711
544,1776741845.0,,The Blue Glass,restaurant,POINT (-122.3647966 47.6761007),47.6761007,-122.3647966
545,1777283058.0,,Starbucks,cafe,POINT (-122.1690037 47.5773639),47.5773639,-122.1690037
546,1777283090.0,,Red Robin,restaurant,POINT (-122.1713851 47.5752762),47.5752762,-122.1713851
547,1777845907.0,,Little Chinook's,fast_food,POINT (-122.3808946 47.6555776),47.6555776,-122.3808946
548,1783130168.0,,Caffè Appassionato,cafe,POINT (-122.3837069 47.6560771),47.6560771,-122.3837069
549,1783136676.0,,Bay Cafe,cafe,POINT (-122.3803558 47.6557257),47.6557257,-122.3803558
550,1785487676.0,,Bandol,restaurant,POINT (-122.331839 47.6019354),47.6019354,-122.331839
551,1788044518.0,,Palmi,restaurant,POINT (-122.3496403 47.6503638),47.6503638,-122.3496403
552,1788044520.0,,Pel'Meni Dumpling Tzar,restaurant,POINT (-122.3505961 47.6511373),47.6511373,-122.3505961
553,1793521066.0,,Zoka Coffee - South Lake Union,cafe,POINT (-122.336121 47.6217104),47.6217104,-122.336121
554,1802312007.0,,Porchlight Coffee,cafe,POINT (-122.3144417 47.6146738),47.6146738,-122.3144417
555,1836754564.0,,Pioneer Square Saloon,bar,POINT (-122.3354445 47.6016146),47.6016146,-122.3354445
556,1839398206.0,,Spud Fish and Chips,restaurant,POINT (-122.4087986 47.5795494),47.5795494,-122.4087986
557,1853258637.0,,Señor Moose,restaurant,POINT (-122.3817902 47.6665862),47.6665862,-122.3817902
558,1856692127.0,,Joule,restaurant,POINT (-122.3424 47.6497249),47.6497249,-122.3424
559,1872335101.0,,Dur Dur Cafe,restaurant,POINT (-122.3031681 47.6081198),47.6081198,-122.3031681
560,1874999237.0,,Little Coney's,restaurant,POINT (-122.4031837 47.686607),47.686607,-122.4031837
561,1875274618.0,,Domino's,fast_food,POINT (-122.377051 47.6901404),47.6901404,-122.377051
562,1886260350.0,,La Rustica,restaurant,POINT (-122.4093461 47.5674149),47.5674149,-122.4093461
563,1887138378.0,,Windy City Pie,restaurant,POINT (-122.3541759 47.672328),47.672328,-122.3541759
564,1887153695.0,,Greenwood Chocolati Cafe,cafe,POINT (-122.3554992 47.6897312),47.6897312,-122.3554992
565,1888703339.0,,The Ugly Mug,cafe,POINT (-122.3138263 47.6597146),47.6597146,-122.3138263
566,1888703344.0,,Parnassus,cafe,POINT (-122.306508 47.658223),47.658223,-122.306508
567,1888703358.0,,Cafe Allegro,cafe,POINT (-122.312716 47.6586927),47.6586927,-122.312716
568,1904594395.0,,Simply Desserts,cafe,POINT (-122.3500314 47.6502718),47.6502718,-122.3500314
569,1904598347.0,,Jai Thai,restaurant,POINT (-122.3500891 47.6503182),47.6503182,-122.3500891
570,1914999363.0,,Aerie,cafe,POINT (-122.1933231 47.6573707),47.6573707,-122.1933231
571,1924165377.0,,Grumpy Ds,cafe,POINT (-122.3772326 47.679651),47.679651,-122.3772326
572,1924171097.0,,Essex,bar,POINT (-122.3749126 47.6794441),47.6794441,-122.3749126
573,1927812192.0,,Top Pot Doughnuts,cafe,POINT (-122.3738774 47.6627763),47.6627763,-122.3738774
574,1946858961.0,,Delicatus,restaurant,POINT (-122.3343745 47.6015299),47.6015299,-122.3343745
575,1953243292.0,,Cherry Street Coffee House,cafe,POINT (-122.3447764 47.6121669),47.6121669,-122.3447764
576,1954021021.0,,520 Bar and Grill,restaurant,POINT (-122.2043689 47.6102725),47.6102725,-122.2043689
577,1954041809.0,,Mediterranean Kitchen,restaurant,POINT (-122.201843 47.611355),47.611355,-122.201843
578,1954142524.0,,Evergreens,cafe,POINT (-122.1996773 47.6135841),47.6135841,-122.1996773
579,1954489994.0,,Fortune Inn,restaurant,POINT (-122.2489464 47.7514479),47.7514479,-122.2489464
580,1957956604.0,,Tenth West,restaurant,POINT (-122.370557 47.636137),47.636137,-122.370557
581,1957956606.0,,Malena's Taco Shop,restaurant,POINT (-122.3659746 47.6397012),47.6397012,-122.3659746
582,1957956607.0,,Coffee Mind,cafe,POINT (-122.370557 47.6362491),47.6362491,-122.370557
583,1960951630.0,,Cafe Besalu,cafe,POINT (-122.3878282 47.6719658),47.6719658,-122.3878282
584,1967905391.0,,S & L Cafe,cafe,POINT (-122.3647719 47.6394797),47.6394797,-122.3647719
585,1970840826.0,,Caffè Fiore,cafe,POINT (-122.360822 47.6324599),47.6324599,-122.360822
586,1970840830.0,,Top Pot Doughnuts,cafe,POINT (-122.361613 47.6322072),47.6322072,-122.361613
587,1970840833.0,,Via Tribunali - Queen Anne,restaurant,POINT (-122.361327 47.6322046),47.6322046,-122.361327
588,1970998262.0,,Watercress,restaurant,POINT (-122.2068721 47.6752132),47.6752132,-122.2068721
589,1971022346.0,,Milagro Cantina,restaurant,POINT (-122.205941 47.6745406),47.6745406,-122.205941
590,1971024628.0,,Anthony's HomePort Kirkland,restaurant,POINT (-122.2065147 47.6742361),47.6742361,-122.2065147
591,1971030987.0,,Isarn,restaurant,POINT (-122.2058545 47.6743278),47.6743278,-122.2058545
592,1971035605.0,,Hector's,restaurant,POINT (-122.2061959 47.6750697),47.6750697,-122.2061959
593,1971039087.0,,Homegrown,restaurant,POINT (-122.2062196 47.6752913),47.6752913,-122.2062196
594,1971043409.0,,George's,restaurant,POINT (-122.205986 47.6756837),47.6756837,-122.205986
595,1971046899.0,,Central Club,bar,POINT (-122.2055416 47.6756461),47.6756461,-122.2055416
596,1971051661.0,,Volterra,restaurant,POINT (-122.2052924 47.6754172),47.6754172,-122.2052924
597,1971071822.0,,Hearth,restaurant,POINT (-122.2037164 47.6756459),47.6756459,-122.2037164
598,1973302876.0,,Lai Thai,restaurant,POINT (-122.2060378 47.676225),47.676225,-122.2060378
599,1973303893.0,,Restaurante Paradiso,restaurant,POINT (-122.205942 47.6762459),47.6762459,-122.205942
600,1973304104.0,,Cactus - Kirkland,restaurant,POINT (-122.205641 47.6760837),47.6760837,-122.205641
601,1973306119.0,,Thruline Coffee Co.,cafe,POINT (-122.205367 47.6763719),47.6763719,-122.205367
602,1973307104.0,,Pho Tai,restaurant,POINT (-122.205092 47.6761977),47.6761977,-122.205092
603,1973308077.0,,Bottle & Bull,bar,POINT (-122.2065667 47.6751652),47.6751652,-122.2065667
604,1973310158.0,,Alanya Cafe,cafe,POINT (-122.2068162 47.6756509),47.6756509,-122.2068162
605,1973313617.0,,Lodge Sports Grille,restaurant,POINT (-122.2070947 47.6761531),47.6761531,-122.2070947
606,1973314544.0,,Club K-Town,bar,POINT (-122.208527 47.6759978),47.6759978,-122.208527
607,1973777134.0,,Romio's,restaurant,POINT (-122.3533168 47.616037),47.616037,-122.3533168
608,1975835344.0,,Rione XIII,restaurant,POINT (-122.31283 47.6220796),47.6220796,-122.31283
609,1978697156.0,,Christo's,restaurant,POINT (-122.4057616 47.5808405),47.5808405,-122.4057616
610,1978697158.0,,Duke's,restaurant,POINT (-122.405959 47.5807773),47.5807773,-122.405959
611,1978697159.0,,El Chupacabra,restaurant,POINT (-122.4073049 47.5801305),47.5801305,-122.4073049
612,1978697161.0,,Pepperdock,fast_food,POINT (-122.4071759 47.5802534),47.5802534,-122.4071759
613,1978697163.0,,Ampersand,cafe,POINT (-122.4066648 47.5804548),47.5804548,-122.4066648
614,1978697165.0,,West Seattle Brewing Co.,restaurant,POINT (-122.4068141 47.5803814),47.5803814,-122.4068141
615,1978697166.0,,Sunfish,fast_food,POINT (-122.4122171 47.5784839),47.5784839,-122.4122171
616,1978697167.0,,Harry’s Beach House,restaurant,POINT (-122.4091509 47.5793974),47.5793974,-122.4091509
617,1981697601.0,,Caffè Appassionato,cafe,POINT (-122.3424975 47.6615362),47.6615362,-122.3424975
618,1981751146.0,,Tsui Sushi Bar,restaurant,POINT (-122.3256094 47.6757104),47.6757104,-122.3256094
619,1982998664.0,,Wayward Coffeehouse,cafe,POINT (-122.3176575 47.6756194),47.6756194,-122.3176575
620,1987522456.0,,Rice'n'Spice,restaurant,POINT (-122.1995606 47.6202669),47.6202669,-122.1995606
621,1987547327.0,,Panera Bread,fast_food,POINT (-122.1995569 47.6204758),47.6204758,-122.1995569
622,1987578187.0,,Domino's,fast_food,POINT (-122.1995664 47.620807),47.620807,-122.1995664
623,1988524258.0,,Starbucks,cafe,POINT (-122.1200436 47.6706107),47.6706107,-122.1200436
624,1989264421.0,,Homegrown,restaurant,POINT (-122.35712 47.6385219),47.6385219,-122.35712
625,1990350778.0,,All City Coffee,cafe,POINT (-122.3171131 47.54902),47.54902,-122.3171131
626,1990363073.0,,Vera Pizza,restaurant,POINT (-122.3174654 47.5489326),47.5489326,-122.3174654
627,1995793592.0,,A Muddy Cup,cafe,POINT (-122.3253013 47.6614916),47.6614916,-122.3253013
628,1999268650.0,,Moore Coffee,cafe,POINT (-122.341267 47.6116348),47.6116348,-122.341267
629,1999272109.0,,Nitelite,bar,POINT (-122.3410283 47.611501),47.611501,-122.3410283
630,1999381696.0,,Broadcast Coffee,cafe,POINT (-122.306579 47.6017892),47.6017892,-122.306579
631,1999390894.0,,Le Pichet,restaurant,POINT (-122.342558 47.6108072),47.6108072,-122.342558
632,1999390895.0,,Virginia Inn,restaurant,POINT (-122.3426305 47.6108583),47.6108583,-122.3426305
633,1999517731.0,,Subway,fast_food,POINT (-122.3530557 47.6162004),47.6162004,-122.3530557
634,2015537706.0,,Betty,restaurant,POINT (-122.3572116 47.6326914),47.6326914,-122.3572116
635,2015537732.0,,Domani,restaurant,POINT (-122.3572204 47.6327965),47.6327965,-122.3572204
636,2015644362.0,,Elliott Bay Pizza Co.,fast_food,POINT (-122.3571242 47.637716),47.637716,-122.3571242
637,2015644385.0,,El Mezcalito,restaurant,POINT (-122.357145 47.6379124),47.6379124,-122.357145
638,2015644408.0,,Paragon,bar,POINT (-122.3571118 47.6379528),47.6379528,-122.3571118
639,2015644419.0,,Queen Anne Cafe,restaurant,POINT (-122.3571242 47.6378377),47.6378377,-122.3571242
640,2017143769.0,,Old School Frozen Custard,cafe,POINT (-122.3147019 47.6142316),47.6142316,-122.3147019
641,2019051179.0,,Caffe Ladro,cafe,POINT (-122.357122 47.6386511),47.6386511,-122.357122
642,2019051181.0,,Ikiiki,restaurant,POINT (-122.3563302 47.6385183),47.6385183,-122.3563302
643,2019051183.0,,Bounty Kitchen,restaurant,POINT (-122.356528 47.6382383),47.6382383,-122.356528
644,2019051184.0,,How to Cook a Wolf,restaurant,POINT (-122.3567358 47.6387102),47.6387102,-122.3567358
645,2019051186.0,,Grappa,restaurant,POINT (-122.3567269 47.6385174),47.6385174,-122.3567269
646,2019051190.0,,Orrapin,restaurant,POINT (-122.3564855 47.6385157),47.6385157,-122.3564855
647,2019051191.0,,Eden Hill,restaurant,POINT (-122.3571185 47.6387067),47.6387067,-122.3571185
648,2022432918.0,,Ada’s Restaurant & Bar,restaurant,POINT (-122.3541824 47.6721718),47.6721718,-122.3541824
649,2037034492.0,,Subway,fast_food,POINT (-122.2853427 47.4731269),47.4731269,-122.2853427
650,2037093251.0,,Subway,fast_food,POINT (-122.3370963 47.6092612),47.6092612,-122.3370963
651,2040309259.0,,,fast_food,POINT (-122.2863776 47.5470417),47.5470417,-122.2863776
652,2040309268.0,,Joy Palace,restaurant,POINT (-122.284937 47.5475586),47.5475586,-122.284937
653,2049191860.0,,Agrodolce,restaurant,POINT (-122.3493389 47.6502979),47.6502979,-122.3493389
654,2049275022.0,,Burger King,fast_food,POINT (-122.3036294 47.5847054),47.5847054,-122.3036294
655,2049275048.0,,Detour Espresso,cafe,POINT (-122.3031828 47.5852165),47.5852165,-122.3031828
656,2049317692.0,,Tilth,restaurant,POINT (-122.3400777 47.6612243),47.6612243,-122.3400777
657,2052359562.0,,Cafe Hitchcock Express,cafe,POINT (-122.3345882 47.6042553),47.6042553,-122.3345882
658,2053744069.0,,Contour,bar,POINT (-122.3353812 47.6034741),47.6034741,-122.3353812
659,2053744073.0,,Mae Phim Thai,restaurant,POINT (-122.3353113 47.6032314),47.6032314,-122.3353113
660,2053744086.0,,Starbucks,cafe,POINT (-122.3356617 47.603795),47.603795,-122.3356617
661,2061048094.0,,Starbucks,cafe,POINT (-122.333085 47.6615004),47.6615004,-122.333085
662,2061048097.0,,Seamonster Lounge,bar,POINT (-122.3323197 47.6615049),47.6615049,-122.3323197
663,2061048098.0,,Changes,bar,POINT (-122.3334927 47.6612762),47.6612762,-122.3334927
664,2061048099.0,,Silver Tray,restaurant,POINT (-122.3336024 47.6612769),47.6612769,-122.3336024
665,2061048100.0,,The Octopus Bar,bar,POINT (-122.332721 47.6612626),47.6612626,-122.332721
666,2061048101.0,,Yoroshiku,restaurant,POINT (-122.3344151 47.6612734),47.6612734,-122.3344151
667,2061048102.0,,Fainting Goat Gelato,cafe,POINT (-122.3347126 47.6612662),47.6612662,-122.3347126
668,2061048103.0,,TNT Taqueria,restaurant,POINT (-122.3329383 47.6614974),47.6614974,-122.3329383
669,2071062675.0,,Yummy Pho,restaurant,POINT (-122.1231617 47.6816407),47.6816407,-122.1231617
670,2071065704.0,,Haiku Sushi & Seafood Buffet,restaurant,POINT (-122.121293 47.6719873),47.6719873,-122.121293
671,2077157830.0,,Aoki Sushi & Grill,restaurant,POINT (-122.3211244 47.6249184),47.6249184,-122.3211244
672,2077157832.0,,Altura,restaurant,POINT (-122.3211555 47.6248147),47.6248147,-122.3211555
673,2077157833.0,,Rom Mai Thai,restaurant,POINT (-122.32115 47.6247346),47.6247346,-122.32115
674,2077157836.0,,Corvus & Co,bar,POINT (-122.321133 47.6243734),47.6243734,-122.321133
675,2077157840.0,,Local Bigger Burger,restaurant,POINT (-122.321114 47.62365),47.62365,-122.321114
676,2077248855.0,,Hot Mama's Pizza,fast_food,POINT (-122.323178 47.6153574),47.6153574,-122.323178
677,2077272323.0,,Albacha Restaurant,restaurant,POINT (-122.3210407 47.6186509),47.6186509,-122.3210407
678,2077272324.0,,Annapurna Cafe,restaurant,POINT (-122.3210789 47.6185778),47.6185778,-122.3210789
679,2077272328.0,,Honor Coffee,cafe,POINT (-122.3210701 47.6197011),47.6197011,-122.3210701
680,2077272330.0,,Nacho Borracho,restaurant,POINT (-122.32104 47.6201245),47.6201245,-122.32104
681,2077272332.0,,Mirch Masala,restaurant,POINT (-122.3210914 47.6202975),47.6202975,-122.3210914
682,2077272344.0,,Jai Thai,restaurant,POINT (-122.3211139 47.6209487),47.6209487,-122.3211139
683,2079419116.0,,The Cheesecake Factory,restaurant,POINT (-122.3333104 47.6119029),47.6119029,-122.3333104
684,2082882071.0,,Starbucks Coffee - QFC,cafe,POINT (-122.211619 47.765492),47.765492,-122.211619
685,2084051833.0,,Best Friend Espresso,cafe,POINT (-122.243453 47.757565),47.757565,-122.243453
686,2086197765.0,,Subway,fast_food,POINT (-122.290871 47.6829019),47.6829019,-122.290871
687,2086703543.0,,Jack in the Box,fast_food,POINT (-122.3699859 47.6632603),47.6632603,-122.3699859
688,2086703544.0,,Pink Bee,restaurant,POINT (-122.3827367 47.6695677),47.6695677,-122.3827367
689,2086703545.0,,Mr. Gyros,fast_food,POINT (-122.3819597 47.6693186),47.6693186,-122.3819597
690,2086802276.0,,Sushi Zone,restaurant,POINT (-122.2065087 47.7601688),47.7601688,-122.2065087
691,2086823622.0,,Carolina Smoke,restaurant,POINT (-122.2188082 47.7785172),47.7785172,-122.2188082
692,2090467806.0,,Burgermaster,fast_food,POINT (-122.209731 47.828615),47.828615,-122.209731
693,2090517943.0,,Red Robin,restaurant,POINT (-122.206076 47.805546),47.805546,-122.206076
694,2091581388.0,,Itto's Tapas,cafe,POINT (-122.3865627 47.5648061),47.5648061,-122.3865627
695,2091605922.0,,Starbucks,cafe,POINT (-122.3875239 47.5446321),47.5446321,-122.3875239
696,2091848568.0,,Endolyne Joe's,restaurant,POINT (-122.3905567 47.5205624),47.5205624,-122.3905567
697,2092589937.0,,Bento Teriyaki,restaurant,POINT (-122.211281 47.765661),47.765661,-122.211281
698,2094299479.0,,Jimmy Johns #1349,restaurant,POINT (-122.3339669 47.5848009),47.5848009,-122.3339669
699,2094299914.0,,Starbucks SoDo 8 #15253,cafe,POINT (-122.336014 47.581054),47.581054,-122.336014
700,2100770883.0,,Starbucks,cafe,POINT (-122.291926 47.732935),47.732935,-122.291926
701,2100773172.0,,Heaven Sent Fried Chicken,fast_food,POINT (-122.291982 47.732785),47.732785,-122.291982
702,2102186795.0,,Yum Yum,restaurant,POINT (-122.3477873 47.7452242),47.7452242,-122.3477873
703,2106231828.0,,Subway,restaurant,POINT (-122.1440649 47.6835259),47.6835259,-122.1440649
704,2106232130.0,,Zaucer Pizza,restaurant,POINT (-122.1441749 47.6835205),47.6835205,-122.1441749
705,2106263772.0,,Momoya Sushi & Saki House,restaurant,POINT (-122.1787945 47.6805224),47.6805224,-122.1787945
706,2111109311.0,,Eltana,cafe,POINT (-122.3422243 47.6542642),47.6542642,-122.3422243
707,2111138602.0,,The Whale Wins,restaurant,POINT (-122.342404 47.6496447),47.6496447,-122.342404
708,2112396508.0,,Basil's Bistro,restaurant,POINT (-122.1889434 47.6067799),47.6067799,-122.1889434
709,2116666853.0,,Ha!,restaurant,POINT (-122.3498789 47.6589451),47.6589451,-122.3498789
710,2120255297.0,,Cedar's,restaurant,POINT (-122.3144998 47.6647206),47.6647206,-122.3144998
711,2125786431.0,,Hi-Spot Cafe,cafe,POINT (-122.2891384 47.6133097),47.6133097,-122.2891384
712,2127063768.0,,Anthony's Fish Bar,restaurant,POINT (-122.3479171 47.6107103),47.6107103,-122.3479171
713,2127063769.0,,Anthony's Pier 66,restaurant,POINT (-122.3482522 47.6108242),47.6108242,-122.3482522
714,2128412570.0,,The Yard Cafe,restaurant,POINT (-122.3556196 47.6895803),47.6895803,-122.3556196
715,2128423799.0,,Readi Spaghetti,fast_food,POINT (-122.206918 47.805184),47.805184,-122.206918
716,2128611900.0,,Hummus Cafe,restaurant,POINT (-122.3550896 47.6904693),47.6904693,-122.3550896
717,2128637225.0,,Shanghai Room,bar,POINT (-122.3551093 47.6922042),47.6922042,-122.3551093
718,2130139848.0,,Makeda & Mingus,cafe,POINT (-122.3556782 47.6853627),47.6853627,-122.3556782
719,2131517381.0,,Pete's Eggnest,restaurant,POINT (-122.3555105 47.6852992),47.6852992,-122.3555105
720,2131651276.0,,El Farol Mexican,restaurant,POINT (-122.3128888 47.6229915),47.6229915,-122.3128888
721,2131651282.0,,Bar Vacilando,restaurant,POINT (-122.312829 47.6221817),47.6221817,-122.312829
722,2131651302.0,,Ada's Technical Books and Cafe,cafe,POINT (-122.312892 47.6226867),47.6226867,-122.312892
723,2131716660.0,,Julia's,bar,POINT (-122.3206536 47.621253),47.621253,-122.3206536
724,2131716732.0,,Teriyaki & Wok,restaurant,POINT (-122.320517 47.6218518),47.6218518,-122.320517
725,2131716739.0,,Bamboo Restaurant,restaurant,POINT (-122.3128721 47.6217831),47.6217831,-122.3128721
726,2131716752.0,,The Pho,restaurant,POINT (-122.3207127 47.6222063),47.6222063,-122.3207127
727,2131716758.0,,Pinto Bistro Thai & Sushi Bar,restaurant,POINT (-122.3207061 47.6222936),47.6222936,-122.3207061
728,2131716769.0,,Witness,bar,POINT (-122.3207011 47.6223791),47.6223791,-122.3207011
729,2131716777.0,,Dué Cucina Italiana,restaurant,POINT (-122.3207132 47.6224488),47.6224488,-122.3207132
730,2131716821.0,,Boca Restobar and Grill,restaurant,POINT (-122.320704 47.622546),47.622546,-122.320704
731,2131716853.0,,Wedgwood Vegetarian Thai,restaurant,POINT (-122.3206951 47.6226482),47.6226482,-122.3206951
732,2131716914.0,,La Cocina y Cantina,restaurant,POINT (-122.3207259 47.6229474),47.6229474,-122.3207259
733,2131716935.0,,Bait Shop,bar,POINT (-122.3207356 47.6246294),47.6246294,-122.3207356
734,2131716956.0,,Lionhead,restaurant,POINT (-122.3206979 47.6249235),47.6249235,-122.3206979
735,2131716963.0,,Carrello,restaurant,POINT (-122.3205321 47.6249602),47.6249602,-122.3205321
736,2131717366.0,,Ammi’s Pakwan,restaurant,POINT (-122.320716 47.6234958),47.6234958,-122.320716
737,2131717370.0,,Herb & Bitter Public House,restaurant,POINT (-122.3207297 47.623614),47.623614,-122.3207297
738,2131717376.0,,Espresso Vivace - Brix,cafe,POINT (-122.3206383 47.6237662),47.6237662,-122.3206383
739,2131717379.0,,Star Fusion & Bar,restaurant,POINT (-122.320723 47.6241188),47.6241188,-122.320723
740,2134044055.0,,Gorgeous George,restaurant,POINT (-122.3555121 47.6853487),47.6853487,-122.3555121
741,2134331814.0,,Pudge Bros. Pizza,fast_food,POINT (-122.3253064 47.6612251),47.6612251,-122.3253064
742,2134331827.0,,Milano Pizza & Pasta,fast_food,POINT (-122.3237209 47.6612067),47.6612067,-122.3237209
743,2134343239.0,,Kabul Afghan Cuisine,restaurant,POINT (-122.3312033 47.6612625),47.6612625,-122.3312033
744,2134343249.0,,Sea Thai,restaurant,POINT (-122.3307489 47.6612672),47.6612672,-122.3307489
745,2134343254.0,,45th Stop N Shop & Poke Bar,fast_food,POINT (-122.330356 47.6612651),47.6612651,-122.330356
746,2135503018.0,,Caffe Zingaro,cafe,POINT (-122.3543623 47.6244508),47.6244508,-122.3543623
747,2135503020.0,,Paju,restaurant,POINT (-122.3561645 47.6244221),47.6244221,-122.3561645
748,2135536814.0,,Julia's in Wallingford,restaurant,POINT (-122.3363818 47.6604268),47.6604268,-122.3363818
749,2135536817.0,,Juisala,cafe,POINT (-122.3363845 47.6605063),47.6605063,-122.3363845
750,2135541966.0,,36 Stone,restaurant,POINT (-122.3423662 47.6515796),47.6515796,-122.3423662
751,2135544318.0,,MiiR,cafe,POINT (-122.3424887 47.6489855),47.6489855,-122.3424887
752,2135544322.0,,Fiasco,restaurant,POINT (-122.3424759 47.6491429),47.6491429,-122.3424759
753,2136435020.0,,Al-Uruba Restaurant,restaurant,POINT (-122.2761785 47.5235132),47.5235132,-122.2761785
754,2136439847.0,,Taj Palace,restaurant,POINT (-122.1540685 47.6308799),47.6308799,-122.1540685
755,2136783969.0,,Cafe Bambino,cafe,POINT (-122.3621375 47.6758453),47.6758453,-122.3621375
756,2136784116.0,,Chocolat Vitale,cafe,POINT (-122.3609677 47.6757846),47.6757846,-122.3609677
757,2136790995.0,,Slate Coffee Roasters,cafe,POINT (-122.3634371 47.6683336),47.6683336,-122.3634371
758,2136830850.0,,Java Jahn,cafe,POINT (-122.3749395 47.663833),47.663833,-122.3749395
759,2136834138.0,,Ballard Mandarin,restaurant,POINT (-122.3659727 47.6688162),47.6688162,-122.3659727
760,2137824762.0,,Five Guys,fast_food,POINT (-122.2179064 47.7918827),47.7918827,-122.2179064
761,2138230526.0,,NoLIta,restaurant,POINT (-122.376429 47.6720507),47.6720507,-122.376429
762,2138230812.0,,Watson’s Counter,restaurant,POINT (-122.3764631 47.6739503),47.6739503,-122.3764631
763,2138367367.0,,Sarducci's,restaurant,POINT (-122.1968323 47.6671647),47.6671647,-122.1968323
764,2138367369.0,,Toshi's Teriyaki,restaurant,POINT (-122.1968336 47.6671084),47.6671084,-122.1968336
765,2138367370.0,,Wah Luck,restaurant,POINT (-122.1968364 47.6669683),47.6669683,-122.1968364
766,2138368875.0,,Mighty-O Donuts,cafe,POINT (-122.3787179 47.6685132),47.6685132,-122.3787179
767,2138368877.0,,Corner Spot,bar,POINT (-122.3786897 47.6695934),47.6695934,-122.3786897
768,2138368957.0,,Heritage Distilling Co.,bar,POINT (-122.3819247 47.6688453),47.6688453,-122.3819247
769,2138369017.0,,Golden City,restaurant,POINT (-122.381959 47.6692271),47.6692271,-122.381959
770,2138389669.0,,Poke Square,cafe,POINT (-122.3790841 47.6685058),47.6685058,-122.3790841
771,2138389680.0,,The Junk Drawer,bar,POINT (-122.379533 47.6685159),47.6685159,-122.379533
772,2138389689.0,,Monkey Bridge,restaurant,POINT (-122.3799661 47.6685022),47.6685022,-122.3799661
773,2138389723.0,,Staple & Fancy,restaurant,POINT (-122.3800456 47.6635494),47.6635494,-122.3800456
774,2138389728.0,,The Walrus and the Carpenter,restaurant,POINT (-122.3801366 47.6636067),47.6636067,-122.3801366
775,2138389809.0,,Root,cafe,POINT (-122.3819747 47.6656029),47.6656029,-122.3819747
776,2138389826.0,,Ballard Loft,bar,POINT (-122.3813084 47.6644602),47.6644602,-122.3813084
777,2138389827.0,,Mox Boarding House,bar,POINT (-122.3804706 47.6649868),47.6649868,-122.3804706
778,2138389831.0,,Ballard Pizza Company,restaurant,POINT (-122.3812745 47.6645689),47.6645689,-122.3812745
779,2138389856.0,,Conor Byrne,bar,POINT (-122.3818804 47.6654648),47.6654648,-122.3818804
780,2138389857.0,,The Lock & Keel,bar,POINT (-122.3819197 47.6655268),47.6655268,-122.3819197
781,2138396683.0,,Thai Thani Kitchen,restaurant,POINT (-122.38391 47.6684912),47.6684912,-122.38391
782,2138396697.0,,MacLeod's Fish & Chips,restaurant,POINT (-122.3824241 47.6659423),47.6659423,-122.3824241
783,2138396702.0,,The Gerald,restaurant,POINT (-122.382522 47.6660224),47.6660224,-122.382522
784,2138396704.0,,Stoneburner,restaurant,POINT (-122.3826226 47.6661106),47.6661106,-122.3826226
785,2138396718.0,,Percy's and Co.,restaurant,POINT (-122.3831591 47.6661902),47.6661902,-122.3831591
786,2138396721.0,,Bitterroot,restaurant,POINT (-122.3832191 47.6662498),47.6662498,-122.3832191
787,2138396730.0,,Anchored Ship,cafe,POINT (-122.3833153 47.6667214),47.6667214,-122.3833153
788,2138396734.0,,Shiku,restaurant,POINT (-122.3833786 47.666768),47.666768,-122.3833786
789,2138396737.0,,The Ballard Cut,restaurant,POINT (-122.3836666 47.6665934),47.6665934,-122.3836666
790,2138396738.0,,The Other Coast Cafe,restaurant,POINT (-122.3837668 47.6666694),47.6666694,-122.3837668
791,2138396744.0,,Patxi's Pizza,restaurant,POINT (-122.3839783 47.6668363),47.6668363,-122.3839783
792,2138396746.0,,Moshi Moshi,restaurant,POINT (-122.3837615 47.6670796),47.6670796,-122.3837615
793,2138396748.0,,Parish Northwest,restaurant,POINT (-122.384168 47.6670338),47.6670338,-122.384168
794,2138396764.0,,Little Tin Goods,bar,POINT (-122.3842848 47.6671413),47.6671413,-122.3842848
795,2138396776.0,,San Fermo,restaurant,POINT (-122.3844573 47.6672496),47.6672496,-122.3844573
796,2138396795.0,,Alison’s Coastal Cafe & Bakery,cafe,POINT (-122.3825173 47.6672738),47.6672738,-122.3825173
797,2138396829.0,,Rachel's Bagels & Burritos,restaurant,POINT (-122.3838136 47.6678544),47.6678544,-122.3838136
798,2138396836.0,,Sunny Teriyaki,restaurant,POINT (-122.383698 47.6682627),47.6682627,-122.383698
799,2138396838.0,,Billy Beach Sushi & Bar,restaurant,POINT (-122.384243 47.6681849),47.6681849,-122.384243
800,2138396839.0,,El Borracho,bar,POINT (-122.38429 47.668232),47.668232,-122.38429
801,2138399511.0,,Spice Waala,restaurant,POINT (-122.382638 47.6695656),47.6695656,-122.382638
802,2138399519.0,,Katsu Burger,restaurant,POINT (-122.3836631 47.6695718),47.6695718,-122.3836631
803,2138399522.0,,Lil Woody's,restaurant,POINT (-122.3839532 47.6688555),47.6688555,-122.3839532
804,2138399528.0,,Ballard Beer Company,bar,POINT (-122.3842733 47.6688541),47.6688541,-122.3842733
805,2138399531.0,,Ballard Coffee Works,cafe,POINT (-122.3845238 47.6688437),47.6688437,-122.3845238
806,2138399532.0,,Starbucks,cafe,POINT (-122.3849094 47.6688438),47.6688438,-122.3849094
807,2138399540.0,,Pie Bar,bar,POINT (-122.385642 47.6688501),47.6688501,-122.385642
808,2138399554.0,,Ann's Teriyaki Restaurant,restaurant,POINT (-122.3868098 47.6688561),47.6688561,-122.3868098
809,2138399559.0,,Sushi I,restaurant,POINT (-122.3866504 47.6688641),47.6688641,-122.3866504
810,2138399589.0,,Sam's Sushi,restaurant,POINT (-122.3845935 47.6689814),47.6689814,-122.3845935
811,2138399616.0,,Gather Kitchen & Bar,restaurant,POINT (-122.3850508 47.6696258),47.6696258,-122.3850508
812,2138414116.0,,Royal Drummer Cafe,cafe,POINT (-122.3873452 47.6755128),47.6755128,-122.3873452
813,2139480343.0,,Viva Jalisco,restaurant,POINT (-122.2115046 47.7917496),47.7917496,-122.2115046
814,2139809196.0,,I Luv Teriyaki,fast_food,POINT (-122.3292819 47.5450903),47.5450903,-122.3292819
815,2139809197.0,,Pho Ha,fast_food,POINT (-122.3299273 47.5445097),47.5445097,-122.3299273
816,2139809201.0,,Starbucks,cafe,POINT (-122.3298052 47.5666765),47.5666765,-122.3298052
817,2139809205.0,,Mikou Teriyaki,fast_food,POINT (-122.3299273 47.5446433),47.5446433,-122.3299273
818,2139809213.0,,Teriyaki & Roll,fast_food,POINT (-122.3300151 47.5666746),47.5666746,-122.3300151
819,2139809216.0,,Burger Madness,fast_food,POINT (-122.3298999 47.5666776),47.5666776,-122.3298999
820,2140458554.0,,8oz. Burger & Co.,restaurant,POINT (-122.3882109 47.668514),47.668514,-122.3882109
821,2140460385.0,,Kimchi House,restaurant,POINT (-122.3878288 47.6713279),47.6713279,-122.3878288
822,2140460393.0,,Venture Coffee,cafe,POINT (-122.3878342 47.6715284),47.6715284,-122.3878342
823,2140460396.0,,The Stepping Stone,bar,POINT (-122.387841 47.6718176),47.6718176,-122.387841
824,2140460428.0,,Olaf's,bar,POINT (-122.387841 47.6746914),47.6746914,-122.387841
825,2140460432.0,,Rupee Bar,bar,POINT (-122.3878503 47.6748368),47.6748368,-122.3878503
826,2140468218.0,,Kiss Cafe,cafe,POINT (-122.3937385 47.6684721),47.6684721,-122.3937385
827,2140468809.0,,Taco Time,fast_food,POINT (-122.395453 47.6684442),47.6684442,-122.395453
828,2140469511.0,,Samara,restaurant,POINT (-122.3982206 47.675759),47.675759,-122.3982206
829,2140513210.0,,Ray's Boathouse and Café,restaurant,POINT (-122.4075723 47.6733773),47.6733773,-122.4075723
830,2140513616.0,,Picolinos,restaurant,POINT (-122.398565 47.6755287),47.6755287,-122.398565
831,2143145008.0,,El Legendario Mexican Restaurant,restaurant,POINT (-122.3475748 47.6630224),47.6630224,-122.3475748
832,2143279404.0,,Quincy's Burgers & Beer,fast_food,POINT (-122.351216 47.6216974),47.6216974,-122.351216
833,2143311013.0,,Seattle Meowtropolitan,cafe,POINT (-122.3429114 47.661252),47.661252,-122.3429114
834,2143311028.0,,Niles Peacock Kitchen & Bar,restaurant,POINT (-122.3426444 47.6561484),47.6561484,-122.3426444
835,2143317787.0,,Manolin,restaurant,POINT (-122.3432673 47.6510166),47.6510166,-122.3432673
836,2143317844.0,,Bar Charlie,bar,POINT (-122.3427909 47.6534183),47.6534183,-122.3427909
837,2143333248.0,,Big Mario's Pizza,restaurant,POINT (-122.3655772 47.6601221),47.6601221,-122.3655772
838,2143336844.0,,Alberona's Da Vinci Pizza,restaurant,POINT (-122.3596631 47.6540138),47.6540138,-122.3596631
839,2143434841.0,,Cafe Munir,restaurant,POINT (-122.3879616 47.6869194),47.6869194,-122.3879616
840,2143434842.0,,La Copa Café,cafe,POINT (-122.3880911 47.6869168),47.6869168,-122.3880911
841,2143436568.0,,Mabel,cafe,POINT (-122.3877497 47.6796112),47.6796112,-122.3877497
842,2143436990.0,,Soprano's Pizza & Pasta,restaurant,POINT (-122.3878316 47.6858525),47.6858525,-122.3878316
843,2144271747.0,,RockCreek,restaurant,POINT (-122.34962 47.6594549),47.6594549,-122.34962
844,2144271748.0,,Uneeda Burger,restaurant,POINT (-122.3497646 47.6595001),47.6595001,-122.3497646
845,2144317409.0,,Le Coin,restaurant,POINT (-122.3502149 47.6578304),47.6578304,-122.3502149
846,2144317438.0,,Paseo,restaurant,POINT (-122.3501692 47.6585026),47.6585026,-122.3501692
847,2144365446.0,,Cafe Con Todo,cafe,POINT (-122.356002 47.6524099),47.6524099,-122.356002
848,2144896712.0,,Bar House,bar,POINT (-122.3521824 47.6515174),47.6515174,-122.3521824
849,2144896713.0,,Red Star Taco Bar,restaurant,POINT (-122.351597 47.6513877),47.6513877,-122.351597
850,2144897869.0,,Art of the Table,restaurant,POINT (-122.3428009 47.6528588),47.6528588,-122.3428009
851,2144897874.0,,Hannyatou,bar,POINT (-122.3441909 47.6539761),47.6539761,-122.3441909
852,2147295880.0,,Sol Liquor Lounge,bar,POINT (-122.3254752 47.6245856),47.6245856,-122.3254752
853,-2146441503.0,,Zeeks Pizza - Queen Anne,restaurant,POINT (-122.357267 47.6365139),47.6365139,-122.357267
854,-2146434060.0,,Sushi Samurai,restaurant,POINT (-122.3572168 47.6352972),47.6352972,-122.3572168
855,-2142065646.0,,2C Thai,restaurant,POINT (-122.2947756 47.7195575),47.7195575,-122.2947756
856,-2142065643.0,,Panda Express,fast_food,POINT (-122.2953142 47.7195997),47.7195997,-122.2953142
857,-2142065642.0,,Pho An,restaurant,POINT (-122.2944944 47.7200437),47.7200437,-122.2944944
858,-2142065639.0,,Double J Saloon,bar,POINT (-122.2943823 47.7202867),47.7202867,-122.2943823
859,-2142065636.0,,Subway,fast_food,POINT (-122.2948509 47.7193994),47.7193994,-122.2948509
860,-2142065633.0,,Toyoda Sushi,restaurant,POINT (-122.294759 47.7205203),47.7205203,-122.294759
861,-2136300202.0,,Rock Box,bar,POINT (-122.3202129 47.6154799),47.6154799,-122.3202129
862,-2136300173.0,,Hot Cakes,cafe,POINT (-122.3238328 47.6198759),47.6198759,-122.3238328
863,-2136299889.0,,Analog Coffee,cafe,POINT (-122.3254623 47.6207259),47.6207259,-122.3254623
864,-2136299646.0,,B~side Foods,restaurant,POINT (-122.325587 47.6207302),47.6207302,-122.325587
865,-2136217152.0,,Bimbos Cantina,restaurant,POINT (-122.3187513 47.6139805),47.6139805,-122.3187513
866,-2136217137.0,,General Porpoise Doughnuts - Capitol Hill,cafe,POINT (-122.3187217 47.6130776),47.6130776,-122.3187217
867,-2136217136.0,,Wildrose,bar,POINT (-122.3182962 47.6139709),47.6139709,-122.3182962
868,-2136217135.0,,Rhino Room,bar,POINT (-122.3183954 47.6151395),47.6151395,-122.3183954
869,-2136217132.0,,Sam's Tavern,bar,POINT (-122.3183269 47.6142583),47.6142583,-122.3183269
870,-2136217119.0,,Cafe Pettirosso,restaurant,POINT (-122.3179728 47.613905),47.613905,-122.3179728
871,-2136217113.0,,Teriyaki Madness,fast_food,POINT (-122.3129064 47.6189001),47.6189001,-122.3129064
872,-2136217079.0,,Bluebird,fast_food,POINT (-122.3164323 47.6139715),47.6139715,-122.3164323
873,-2136216991.0,,Dingfelder’s Delicatessen,cafe,POINT (-122.3144924 47.615431),47.615431,-122.3144924
874,-2136216966.0,,Bar Melusine,bar,POINT (-122.3183672 47.6130754),47.6130754,-122.3183672
875,-2136216951.0,,SOI,restaurant,POINT (-122.3192334 47.6131229),47.6131229,-122.3192334
876,-2136216950.0,,Tavern Law,bar,POINT (-122.3166258 47.6132451),47.6132451,-122.3166258
877,-2136216937.0,,Katsu Burger,restaurant,POINT (-122.3166171 47.6134133),47.6134133,-122.3166171
878,-2136216908.0,,Drip Tea,cafe,POINT (-122.3192083 47.6133604),47.6133604,-122.3192083
879,-2136216891.0,,Barrio,restaurant,POINT (-122.3166222 47.6136973),47.6136973,-122.3166222
880,-2136216888.0,,Pho Huy,restaurant,POINT (-122.3133759 47.614401),47.614401,-122.3133759
881,-2136216872.0,,Bobabucha Cafe,cafe,POINT (-122.3129642 47.6154471),47.6154471,-122.3129642
882,-2136216866.0,,Plum Bistro,restaurant,POINT (-122.3171044 47.6138154),47.6138154,-122.3171044
883,-2136216850.0,,Lost Lake Cafe & Lounge,restaurant,POINT (-122.319628 47.614393),47.614393,-122.319628
884,-2136216840.0,,Havana,bar,POINT (-122.3192505 47.6143227),47.6143227,-122.3192505
885,-2136216839.0,,Neighbors,bar,POINT (-122.3212041 47.6144094),47.6144094,-122.3212041
886,-2136216819.0,,Tacos Guaymas,fast_food,POINT (-122.3210008 47.6146814),47.6146814,-122.3210008
887,-2136216781.0,,Mia's Off Broadway Cafe,cafe,POINT (-122.3223714 47.6153948),47.6153948,-122.3223714
888,-2136216658.0,,Hi Tea Cafe,cafe,POINT (-122.3206398 47.6200664),47.6200664,-122.3206398
889,-2136216640.0,,Highline,bar,POINT (-122.3206748 47.6203027),47.6203027,-122.3206748
890,-2136216580.0,,Rondo,restaurant,POINT (-122.3206369 47.6207375),47.6207375,-122.3206369
891,-2136216516.0,,Life on Mars,bar,POINT (-122.3222957 47.6142279),47.6142279,-122.3222957
892,-2136216506.0,,Capitol Cider,restaurant,POINT (-122.3210992 47.6142084),47.6142084,-122.3210992
893,-2136216505.0,,Starbucks,cafe,POINT (-122.3209901 47.6142237),47.6142237,-122.3209901
894,-2136216494.0,,The Tin Table,restaurant,POINT (-122.3198707 47.6151211),47.6151211,-122.3198707
895,-2136216491.0,,Iki Na,restaurant,POINT (-122.3198375 47.6142164),47.6142164,-122.3198375
896,-2136205979.0,,Dao Tai House,restaurant,POINT (-122.3171739 47.6156632),47.6156632,-122.3171739
897,-2136198857.0,,Rumba,restaurant,POINT (-122.3285566 47.6138049),47.6138049,-122.3285566
898,-2136198843.0,,Meaty Johnson's BBQ,cafe,POINT (-122.3285088 47.6148431),47.6148431,-122.3285088
899,-2136198836.0,,Qin Xi'an Noodles,fast_food,POINT (-122.3284271 47.6148772),47.6148772,-122.3284271
900,-2136198829.0,,The Baltic Room,bar,POINT (-122.3282968 47.6149316),47.6149316,-122.3282968
901,-2136198821.0,,Li'l Woody's,fast_food,POINT (-122.3281858 47.614978),47.614978,-122.3281858
902,-2136198819.0,,Ristorante Machiavelli,restaurant,POINT (-122.3280674 47.6150274),47.6150274,-122.3280674
903,-2136198818.0,,La Cocina Oaxaquena,restaurant,POINT (-122.3281345 47.6153901),47.6153901,-122.3281345
904,-2136198812.0,,Captain Blacks,bar,POINT (-122.3241849 47.6193202),47.6193202,-122.3241849
905,-2136198806.0,,Pie Bar,bar,POINT (-122.3273958 47.6166974),47.6166974,-122.3273958
906,-2136198797.0,,Hula Hula,bar,POINT (-122.3258481 47.6179365),47.6179365,-122.3258481
907,-2136198796.0,,Terra Plata,restaurant,POINT (-122.3280798 47.6143873),47.6143873,-122.3280798
908,-2136198792.0,,Montana,bar,POINT (-122.3262971 47.6179414),47.6179414,-122.3262971
909,-2136198787.0,,Yalla,restaurant,POINT (-122.3261573 47.6180814),47.6180814,-122.3261573
910,-2136198781.0,,Revolver Bar,bar,POINT (-122.3260709 47.6181916),47.6181916,-122.3260709
911,-2136198751.0,,The Hillside Bar,bar,POINT (-122.3259852 47.6183009),47.6183009,-122.3259852
912,-2136198731.0,,Dino's Tomato Pie,restaurant,POINT (-122.3259287 47.6183874),47.6183874,-122.3259287
913,-2136198715.0,,Still Liquor,bar,POINT (-122.3283413 47.6146338),47.6146338,-122.3283413
914,-2136198693.0,,Homegrown,fast_food,POINT (-122.3280652 47.6148665),47.6148665,-122.3280652
915,-2136198642.0,,Glo's Coffee Shop,cafe,POINT (-122.3245345 47.6192927),47.6192927,-122.3245345
916,-2136198629.0,,The Doctor's Office,bar,POINT (-122.3242875 47.6194168),47.6194168,-122.3242875
917,-2136198623.0,,The Stumbling Monk,bar,POINT (-122.3241621 47.6194827),47.6194827,-122.3241621
918,-2136198581.0,,CC Attle's,bar,POINT (-122.3233324 47.6197166),47.6197166,-122.3233324
919,-2136198578.0,,Kessler's,bar,POINT (-122.3231802 47.6197359),47.6197359,-122.3231802
920,-2136198473.0,,Kedai Makan,restaurant,POINT (-122.3266027 47.6179196),47.6179196,-122.3266027
921,-2136198438.0,,Pressed Juicery,fast_food,POINT (-122.3274514 47.6150988),47.6150988,-122.3274514
922,-2136198414.0,,Sugar Hill,bar,POINT (-122.326021 47.6153439),47.6153439,-122.326021
923,-2136198400.0,,Mezcaleria Oaxaca,restaurant,POINT (-122.3257733 47.6153484),47.6153484,-122.3257733
924,-2136198395.0,,Meet Korean BBQ,restaurant,POINT (-122.3253244 47.6142556),47.6142556,-122.3253244
925,-2136198394.0,,Tamari Bar,restaurant,POINT (-122.3253103 47.6154268),47.6154268,-122.3253103
926,-2136198380.0,,East Trading Co.,bar,POINT (-122.3249011 47.6142339),47.6142339,-122.3249011
927,-2136198375.0,,Half and Half Doughnut Co.,cafe,POINT (-122.3248176 47.6142346),47.6142346,-122.3248176
928,-2136198373.0,,The Belmont,bar,POINT (-122.3246571 47.6142379),47.6142379,-122.3246571
929,-2136198372.0,,NEKO Cat Cafe,cafe,POINT (-122.324833 47.6151081),47.6151081,-122.324833
930,-2136198357.0,,Fogan Cocina Mexicana,restaurant,POINT (-122.3242827 47.6153475),47.6153475,-122.3242827
931,-2136198342.0,,Suika,restaurant,POINT (-122.323886 47.6151029),47.6151029,-122.323886
932,-2136198337.0,,Realfine Coffee,cafe,POINT (-122.3236427 47.6153631),47.6153631,-122.3236427
933,-2136194949.0,,Single Shot,restaurant,POINT (-122.325476 47.624673),47.624673,-122.325476
934,-2136194948.0,,Summit Public House,bar,POINT (-122.3255692 47.6244062),47.6244062,-122.3255692
935,-2136194791.0,,Joe Bar,restaurant,POINT (-122.3216223 47.62522),47.62522,-122.3216223
936,-2135744346.0,,Cha Cha Lounge,bar,POINT (-122.3187251 47.6139807),47.6139807,-122.3187251
937,-2135644721.0,,206 Burger Company,restaurant,POINT (-122.3261909 47.6090339),47.6090339,-122.3261909
938,-2135644671.0,,The Hideout,bar,POINT (-122.3254463 47.6094367),47.6094367,-122.3254463
939,-2135644661.0,,Thai Star Restaurant,restaurant,POINT (-122.3254959 47.609488),47.609488,-122.3254959
940,-2135644656.0,,Zaki Mediterranean Grill,restaurant,POINT (-122.325541 47.6095393),47.6095393,-122.325541
941,-2135644654.0,,Union,bar,POINT (-122.318913 47.6127788),47.6127788,-122.318913
942,-2135644651.0,,Yoshino Teriyaki,fast_food,POINT (-122.3259714 47.6091236),47.6091236,-122.3259714
943,-2135644637.0,,Sugar Bakery & Cafe,cafe,POINT (-122.3258494 47.609175),47.609175,-122.3258494
944,-2135644633.0,,Pho Saigon,restaurant,POINT (-122.32571 47.6092429),47.6092429,-122.32571
945,-2135644607.0,,Italian Family Pizza,restaurant,POINT (-122.3253994 47.6093645),47.6093645,-122.3253994
946,-2135644577.0,,Subway,fast_food,POINT (-122.3244588 47.6094548),47.6094548,-122.3244588
947,-2135644547.0,,Café Presse,cafe,POINT (-122.3169927 47.6120944),47.6120944,-122.3169927
948,-2135644487.0,,Top Pot Doughnuts,cafe,POINT (-122.3238273 47.6100591),47.6100591,-122.3238273
949,-2135644482.0,,Potbelly,fast_food,POINT (-122.3237073 47.610103),47.610103,-122.3237073
950,-2135644432.0,,Sarducci's Specialty Subs,fast_food,POINT (-122.3223229 47.610349),47.610349,-122.3223229
951,-2135644359.0,,8oz Burger & Co.,restaurant,POINT (-122.3209687 47.6131116),47.6131116,-122.3209687
952,-2135644325.0,,Chipotle,fast_food,POINT (-122.3209713 47.6133731),47.6133731,-122.3209713
953,-2135644291.0,,Domino's,fast_food,POINT (-122.3209747 47.6136903),47.6136903,-122.3209747
954,-2135644285.0,,Tangerine Tree,restaurant,POINT (-122.3218598 47.6138108),47.6138108,-122.3218598
955,-2135644272.0,,Pagliacci Pizza,restaurant,POINT (-122.3260488 47.6139305),47.6139305,-122.3260488
956,-2135644268.0,,Tavolata,restaurant,POINT (-122.3253177 47.6139607),47.6139607,-122.3253177
957,-2135644253.0,,Chuan on Capitol Hill,restaurant,POINT (-122.3242522 47.6139534),47.6139534,-122.3242522
958,-2135644236.0,,Coffee Tree and Poke,cafe,POINT (-122.3253983 47.6059309),47.6059309,-122.3253983
959,-2135644211.0,,HoneyHole,restaurant,POINT (-122.3232008 47.613932),47.613932,-122.3232008
960,-2135644174.0,,Saint John's Bar & Eatery,restaurant,POINT (-122.3225652 47.6139519),47.6139519,-122.3225652
961,-2135644169.0,,La Dive,cafe,POINT (-122.3224625 47.6139497),47.6139497,-122.3224625
962,-2135644158.0,,Ayutthaya Thai Cuisine,restaurant,POINT (-122.3222885 47.6139466),47.6139466,-122.3222885
963,-2135644144.0,,Kyoto Teriyaki,fast_food,POINT (-122.3218416 47.6139463),47.6139463,-122.3218416
964,-2135644123.0,,Poke n Roll,fast_food,POINT (-122.3216852 47.613943),47.613943,-122.3216852
965,-2135644095.0,,Coffee Tree,cafe,POINT (-122.3281984 47.6073387),47.6073387,-122.3281984
966,-2135644047.0,,Capitol Coffee Works,cafe,POINT (-122.3203102 47.6139612),47.6139612,-122.3203102
967,-2135644026.0,,Quarter Lounge,bar,POINT (-122.3269348 47.608458),47.608458,-122.3269348
968,-2135643917.0,,Vito's,restaurant,POINT (-122.3274444 47.6082093),47.6082093,-122.3274444
969,-2132838773.0,,Hooverville,bar,POINT (-122.3344811 47.5875626),47.5875626,-122.3344811
970,-2127735939.0,,El Camino,restaurant,POINT (-122.3509101 47.6505296),47.6505296,-122.3509101
971,-2127713728.0,,Kin Len Thai Night Bites,restaurant,POINT (-122.3501319 47.651241),47.651241,-122.3501319
972,-2127713710.0,,B. Fuller's Mortar & Pestle,cafe,POINT (-122.3505377 47.6513068),47.6513068,-122.3505377
973,-2127626443.0,,Lucky's Pho,fast_food,POINT (-122.3496152 47.6500686),47.6500686,-122.3496152
974,-2127626396.0,,Café Turko,restaurant,POINT (-122.3478348 47.6494266),47.6494266,-122.3478348
975,-2127626394.0,,Milstead & Co.,cafe,POINT (-122.3476154 47.649393),47.649393,-122.3476154
976,-2125901585.0,,Miss Cafe,restaurant,POINT (-122.340759 47.60938),47.60938,-122.340759
977,-2125901582.0,,Hard Rock Cafe,restaurant,POINT (-122.339425 47.6092244),47.6092244,-122.339425
978,-2125901528.0,,Starbucks,cafe,POINT (-122.3398869 47.6090525),47.6090525,-122.3398869
979,-2125901527.0,,Subway,fast_food,POINT (-122.3397971 47.6091028),47.6091028,-122.3397971
980,-2125675606.0,,Michou Deli,restaurant,POINT (-122.342338 47.6098611),47.6098611,-122.342338
981,-2125675598.0,,Piroshky Piroshky at Pike Place Market,restaurant,POINT (-122.3424581 47.6099319),47.6099319,-122.3424581
982,-2125675563.0,,Turkish Delight,fast_food,POINT (-122.3431229 47.6103399),47.6103399,-122.3431229
983,-2125631236.0,,Etta's,restaurant,POINT (-122.3438151 47.6107983),47.6107983,-122.3438151
984,-2125631162.0,,Seatown Seabar and Rotisserie,restaurant,POINT (-122.3434739 47.6105857),47.6105857,-122.3434739
985,-2124117332.0,,Katsu Burger,restaurant,POINT (-122.3291739 47.5441534),47.5441534,-122.3291739
986,-2124117330.0,,Marco Polo,bar,POINT (-122.3298213 47.5520896),47.5520896,-122.3298213
987,-2124117328.0,,Orient Express,restaurant,POINT (-122.3293103 47.5757148),47.5757148,-122.3293103
988,-2124117327.0,,Rocking Wok,restaurant,POINT (-122.3408887 47.659315),47.659315,-122.3408887
989,-2124117324.0,,Siren Tavern,bar,POINT (-122.3295382 47.5734961),47.5734961,-122.3295382
990,-2124117315.0,,Subway,fast_food,POINT (-122.3297865 47.5525392),47.5525392,-122.3297865
991,-2124117312.0,,Pho Sriracha,fast_food,POINT (-122.329837 47.5529436),47.5529436,-122.329837
992,-2114289012.0,,Big Mario's Pizza,fast_food,POINT (-122.3477244 47.6268102),47.6268102,-122.3477244
993,-2114289008.0,,The Great Nabob,bar,POINT (-122.3477347 47.6269337),47.6269337,-122.3477347
994,-2104456661.0,,Thai Fusion,restaurant,POINT (-122.3567925 47.6491931),47.6491931,-122.3567925
995,-2104454225.0,,Subway,fast_food,POINT (-122.3607072 47.6499327),47.6499327,-122.3607072
996,-2096035231.0,,Espresso Vivace - Sidewalk Bar,cafe,POINT (-122.3211631 47.6216095),47.6216095,-122.3211631
997,-2087862734.0,,Fuel,cafe,POINT (-122.301911 47.6396555),47.6396555,-122.301911
998,-2082860611.0,,Alki Chicken & Waffles,restaurant,POINT (-122.4107979 47.5789343),47.5789343,-122.4107979
999,-2055349569.0,,Starbucks,cafe,POINT (-122.3019338 47.448177),47.448177,-122.3019338
1000,-2026063863.0,,Pecado Bueno,restaurant,POINT (-122.3256284 47.6412896),47.6412896,-122.3256284
1001,-2026063833.0,,Otter Bar and Burger,restaurant,POINT (-122.3261004 47.6419326),47.6419326,-122.3261004
1002,-2025976038.0,,Sixth Avenue EATS,fast_food,POINT (-122.3447846 47.6207073),47.6207073,-122.3447846
1003,-2025975902.0,,Art Marble 21,bar,POINT (-122.3394539 47.6264312),47.6264312,-122.3394539
1004,-2025975879.0,,Urban Coffee,cafe,POINT (-122.3394276 47.6257138),47.6257138,-122.3394276
1005,-2024893133.0,,Sebi's Bistro,restaurant,POINT (-122.3212803 47.6513257),47.6513257,-122.3212803
1006,-2024872710.0,,Copper Tree Coffee House,cafe,POINT (-122.319895 47.6415202),47.6415202,-122.319895
1007,-2024854328.0,,Amante Pizza & Pasta,restaurant,POINT (-122.320216 47.6411743),47.6411743,-122.320216
1008,-2021893760.0,,Starbucks,cafe,POINT (-122.166485 47.538267),47.538267,-122.166485
1009,-2019136413.0,,La Carta de Oaxaca,restaurant,POINT (-122.3859378 47.6682176),47.6682176,-122.3859378
1010,-2019133402.0,,The Hazlewood,bar,POINT (-122.3866864 47.6685187),47.6685187,-122.3866864
1011,-2019055810.0,,Pho Than Brothers,restaurant,POINT (-122.383741 47.6684948),47.6684948,-122.383741
1012,-2018799284.0,,El 42 Cantina,bar,POINT (-122.0364045 47.5305818),47.5305818,-122.0364045
1013,-2018799276.0,,Stan's BBQ,restaurant,POINT (-122.0364122 47.530748),47.530748,-122.0364122
1014,-2018797041.0,,Krawbar,restaurant,POINT (-122.0363996 47.5311019),47.5311019,-122.0363996
1015,-2018797040.0,,Subway,fast_food,POINT (-122.0363854 47.5313303),47.5313303,-122.0363854
1016,-2018791182.0,,Chicago Pastrami,restaurant,POINT (-122.0363651 47.5322061),47.5322061,-122.0363651
1017,-2018774171.0,,Vino Bella,bar,POINT (-122.0367491 47.5312946),47.5312946,-122.0367491
1018,-2018774162.0,,H & H Saloon,bar,POINT (-122.0367844 47.5311998),47.5311998,-122.0367844
1019,-2018734841.0,,Bukhara Bar & Grill,restaurant,POINT (-122.0366805 47.5317662),47.5317662,-122.0366805
1020,-2018574905.0,,Common Grounds,cafe,POINT (-122.0355901 47.5295382),47.5295382,-122.0355901
1021,-2018574899.0,,Koffee Sutra,cafe,POINT (-122.0364036 47.5291666),47.5291666,-122.0364036
1022,-2018574892.0,,Macky's Dim Sum,restaurant,POINT (-122.035957 47.5302308),47.5302308,-122.035957
1023,-2018574878.0,,Flying Pie Pizzeria,restaurant,POINT (-122.0352487 47.5298248),47.5298248,-122.0352487
1024,-2015109334.0,,Teriyaki 1st,fast_food,POINT (-122.3666943 47.6909264),47.6909264,-122.3666943
1025,-2009870165.0,,Satay Bar,bar,POINT (-122.3555082 47.6896828),47.6896828,-122.3555082
1026,-2008727745.0,,Chada Thai,restaurant,POINT (-122.3548462 47.719872),47.719872,-122.3548462
1027,-2008645634.0,,Starbucks,cafe,POINT (-122.3454817 47.7243097),47.7243097,-122.3454817
1028,-2008645633.0,,Teriyaki & Pho,fast_food,POINT (-122.3454764 47.7243841),47.7243841,-122.3454764
1029,-2005191621.0,,Chef at Wok,restaurant,POINT (-122.3557875 47.7193863),47.7193863,-122.3557875
1030,-2002943681.0,,Kuan Zhai Alley,restaurant,POINT (-122.3560251 47.7335143),47.7335143,-122.3560251
1031,-2001010550.0,,Fainting Goat Gelato,cafe,POINT (-122.3500078 47.6501499),47.6501499,-122.3500078
1032,-1998891172.0,,Collective on Tap,bar,POINT (-122.1604269 47.7579334),47.7579334,-122.1604269
1033,-1998664832.0,,Russell's Restaurant & Loft,restaurant,POINT (-122.1887933 47.7787922),47.7787922,-122.1887933
1034,-1998241698.0,,Raiz,restaurant,POINT (-122.362656 47.6760761),47.6760761,-122.362656
1035,-1997249459.0,,Ti22,restaurant,POINT (-122.3464629 47.6170766),47.6170766,-122.3464629
1036,-1994588193.0,,Similan Thai Cuisine,restaurant,POINT (-122.0413893 47.5509745),47.5509745,-122.0413893
